id,type,name,lat,lon
1326947,node,Ostrovačice,49.2154787,16.4113951
21289059,node,Švermova,49.1691184,16.5727954
21289371,node,Kovářská,49.18433,16.6222034
21289570,node,Achtelky,49.1853682,16.54224
21306590,node,Pražská radiála,49.1909503,16.5692666
21308447,node,Skalní,49.1742773,16.5343577
21308454,node,Zvonařka,49.1874595,16.6188279
21308947,node,Kývalka,49.1879935,16.4506963
21309377,node,Brno-jih,49.159908,16.6364323
21310312,node,U hřiště,49.1661226,16.5585524
21310348,node,Brno-západ,49.169139,16.5360673
21310755,node,Ostopovice,49.1630244,16.5359327
21310793,node,Kníničská,49.2091438,16.5715538
21310812,node,Ivanovice,49.2585777,16.5793931
21310817,node,Řečkovice,49.2476482,16.5890803
21312786,node,Brno hl.n.,49.190467,16.6131838
21319839,node,Hlinky,49.1962043,16.5677462
21329314,node,Horácké náměstí,49.2482381,16.5821977
21378927,node,Laštůvkova,49.2205769,16.5260426
21384179,node,Brno-centrum,49.1597372,16.6000143
21438133,node,Křiby,49.1821803,16.5205859
21438134,node,Hradisko,49.1876517,16.5097342
21455149,node,Osová,49.1690438,16.5670123
21496136,node,"Starý Lískovec, smyčka",49.1713883,16.554581
21496169,node,Štefánikova čtvrť,49.2171629,16.6277625
21496346,node,Česká,49.2833348,16.5663288
21510881,node,Troubsko,49.1784128,16.5045964
21540411,node,Babice nad Svitavou,49.276711,16.6730628
21540703,node,Bohumická,49.1636633,16.5991756
21540729,node,Gruzínská,49.1661285,16.5855258
21540802,node,Jemelkova,49.1731624,16.5487197
21626780,node,Vídeňská,49.1672113,16.5989143
21626790,node,Strážní,49.1780847,16.6038404
21626815,node,Hladíkova,49.1878904,16.6257251
21627096,node,Brno-Horní Heršpice,49.1668305,16.6068065
21639202,node,Hlavní,49.2167587,16.5602278
21651018,node,Koliště - Cejl,49.196105,16.6156531
21673321,node,Vozovna Medlánky,49.2354038,16.5862724
21673347,node,Velodrom,49.1843515,16.5769651
22113077,node,Brno-Lesná,49.2208716,16.6260758
22113092,node,Brno-Královo Pole,49.2311505,16.5965798
22462477,node,Čermákova,49.1643725,16.5653682
25237365,node,Pisárky,49.1941246,16.5696957
25310422,node,Adamcova,49.2182371,16.5201573
25310480,node,Svitavská radiála,49.2201979,16.6107455
25468278,node,Brno-východ,49.1848514,16.7221013
25566939,node,Popovice,49.1055945,16.603887
25566940,node,Rajhrad,49.1027355,16.6026922
25625132,node,Modřice,49.1245809,16.6038707
25625184,node,Kuřim-jih,49.286467,16.5642554
26191394,node,Holubice,49.1813647,16.8046837
26363989,node,Střelice dolní,49.1565203,16.5062476
26364004,node,Omice,49.1610825,16.4467223
26364074,node,Střelice,49.1538695,16.482764
26430995,node,Vaňkovo náměstí,49.1949701,16.5867285
27605189,node,Štursova,49.21639,16.5636496
30085265,node,Medlánky,49.2404775,16.5737691
30193153,node,Ekonomicko-správní fakulta Masarykovy Univerzity,49.1934783,16.5772569
30432608,node,Popovice u Rajhradu,49.1034098,16.6056692
31368593,node,Chrlice,49.137229,16.636314
38938572,node,Brno 42,49.1760098,16.526788
47838589,node,Na Hřišti,49.1752711,16.5271483
47838596,node,Orlovna,49.1734948,16.5331245
52741839,node,U Sojků,49.173247,16.5268504
53929711,node,Stránská skála,49.1905161,16.6757475
59817069,node,Židovský hřbitov,49.1915025,16.6411204
60279297,node,Brno-Chrlice,49.1320818,16.6572159
60400499,node,Sokolnice-Telnice,49.1079552,16.7338876
60938964,node,Koniklecová,49.176467,16.5593688
74136713,node,SIlůvky,49.1060119,16.4785325
74165892,node,Ochoz u Brna,49.247523,16.728455
74171396,node,Prušánecká,49.208223,16.663575
74177307,node,Bílovice nad Svitavou,49.2546479,16.670904
74194892,node,Bílá hora,49.194034,16.6677709
74246048,node,Maloměřický most,49.2152559,16.6439535
74269422,node,Akátky,49.2084881,16.6484994
74297587,node,Velká Klajdovka,49.2172084,16.6810786
81639122,node,Brno-Maloměřice,49.2168383,16.6507847
82469980,node,Tomkovo náměstí,49.2136377,16.6372919
83365417,node,Knihovna Jiřího Mahena,49.1951704,16.6096238
83483337,node,Místodržitelský palác,49.1976369,16.6081832
83483340,node,Morgal,49.1978992,16.6083609
88962046,node,Stránského,49.2119373,16.5683965
88978151,node,Hvězdárna a planetárium Brno,49.2047665,16.5836423
96375056,node,Bosonohy,49.1757071,16.5301824
96375060,node,Bystrc,49.2262815,16.5304889
96375063,node,Žebětín,49.2073623,16.4865919
110476087,node,Palackého náměstí,49.2507953,16.5818496
118712806,node,Brněnské Ivanovice,49.1586827,16.6526339
118712809,node,Tuřany,49.1476701,16.6677987
118712813,node,Holásky,49.1432997,16.6509227
150900593,node,Komín,49.2196466,16.5522187
158758762,node,"Královo Pole, nádraží",49.2292614,16.5961716
159540426,node,Husa na provázku,49.1919549,16.6078883
163169508,node,Studio Lávka,49.2064011,16.5876489
171320139,node,Podstránská,49.1876665,16.6659848
171320365,node,Brno-Slatina,49.1696991,16.6818783
177650345,node,Blažovice,49.1638776,16.7986896
180731921,node,soutok Svratky a Svitavy,49.1416827,16.6279517
190887294,node,EuroOil Střelice,49.1573082,16.504556
203912945,node,Radostice,49.134282,16.4616451
207632159,node,Ivančice letovisko,49.0947867,16.4020469
211798549,node,Brno-Černovice,49.1890133,16.6312622
211841715,node,U Sedmi švábů;nemocnice sester Alžbětinek,49.1917617,16.6025883
213195553,node,Jundrov,49.2086785,16.552668
213195558,node,Královo Pole,49.2310811,16.5922421
213195562,node,Žabovřesky,49.2190787,16.5787572
213195567,node,Kraví hora,49.2043821,16.584377
213195571,node,Helgoland,49.1940454,16.5866987
235249589,node,Kociánka,49.225645,16.6019111
241793991,node,Kleštínek,49.2692604,16.5959748
243855035,node,"Lesná, nádraží",49.2205071,16.6296233
243857097,node,Cacovická,49.2143449,16.638128
243879318,node,Fügnerova,49.2204508,16.6197535
247196793,node,Fillova,49.2293092,16.6169996
247752179,node,Tesco Vídeňská,49.1545954,16.5999086
247752192,node,"Moravany, Bohunická cesta",49.150751,16.583525
248134376,node,Silůvky (žst.),49.1082893,16.4630384
248414113,node,Silůvky,49.1048241,16.4666328
250131898,node,Motorest Rohlenka,49.1836809,16.7612032
259585049,node,Brno 8,49.1779162,16.6029382
265741020,node,"Benzina - Brno, Hněvkovského",49.165815,16.631278
277496754,node,Letiště - logistický areál,49.1565056,16.6926752
281133995,node,Kupkova,49.2365871,16.6276152
281420103,node,Řezáčova,49.2266099,16.5553809
281420135,node,Chaloupky,49.22311,16.557207
282337238,node,"Ivanovice, Globus",49.2627944,16.5779521
282337240,node,Maříkova,49.2595642,16.5791235
282337316,node,Jehnice,49.2714359,16.5957993
282337545,node,"Líšeň, Jírova",49.2091711,16.6886405
282337882,node,Podzimní,49.2216412,16.6529458
285944916,node,Soběšice,49.253031,16.6262583
286084672,node,Útěchov,49.288006,16.6348429
286285231,node,Rozárka,49.2541088,16.6226212
286326936,node,Červinkova,49.2253461,16.5826438
286386260,node,"Soběšice, Klarisky",49.2571211,16.6225175
286386526,node,Brněnka,49.2541911,16.6228212
286386529,node,Brno 44,49.2545548,16.6229365
286386556,node,Na Rozárce,49.2544064,16.6229459
287037794,node,Střed kaple svatého Kříže a první trigonometrický bod v ČSR,49.2481164,16.621812
287799923,node,U Buku,49.2768807,16.6303159
287799977,node,U Jezírka,49.2699117,16.6290989
287842660,node,Brno 25,49.167897,16.5643635
287842662,node,U zlaté nudle,49.1679082,16.5647669
288164640,node,Mokrá Hora,49.2613704,16.5911079
288164869,node,Ořešín,49.2799187,16.6102258
288205035,node,"Bílovice nad Svitavou, Soběšická",49.2443615,16.6566128
288205037,node,"Bílovice nad Svitavou, Vodárenská",49.2441978,16.6611891
288390162,node,Panská lícha,49.2464308,16.63558
288553756,node,Slatina Sídliště,49.1815851,16.6902303
288554087,node,Hviezdoslavova,49.1816927,16.6771905
289661168,node,"Babice nad Svitavou, horní zastávka",49.2844228,16.6969634
289661200,node,"Adamov, Kolonka",49.2925059,16.6665578
289833072,node,Stará Osada,49.2024087,16.6415617
290690419,node,Prštice;Silůvky,49.1110777,16.4678874
292003483,node,Pionýrská,49.2079374,16.6041839
292003485,node,Hrnčířská,49.2106362,16.6026176
292055453,node,Rakovecká,49.2260857,16.5193285
292055472,node,Kubíčkova,49.2209734,16.5202754
292055473,node,Ondrouškova,49.2173903,16.5170312
292055474,node,Zoologická zahrada,49.2277699,16.5318552
292055483,node,Nové sady,49.1900547,16.6088728
292055485,node,Malinovského náměstí,49.1956517,16.6133167
295386843,node,Cinema City,49.1375468,16.6322786
295657863,node,Scala,49.1973409,16.608146
296438583,node,Divadlo Radost,49.19891,16.6177972
296438932,node,Zastavárna bazar,49.1983418,16.6196969
296443209,node,Skleněná louka,49.2004987,16.6030996
296443439,node,Hasičská záchranná služba SŽDC,49.2157457,16.654407
296443527,node,Kreativní svět s.r.o.,49.1899112,16.5842115
296444038,node,U Daana,49.2093947,16.6048043
296445664,node,Moravská chalupa,49.1847998,16.5845736
296446060,node,7. nebe,49.194357,16.6099774
296448269,node,Mikulášek,49.2124374,16.6322232
296451517,node,Komín PUB,49.2188605,16.5568753
296452023,node,Pizzerie u Balkánu,49.2005045,16.6171854
296457452,node,Vila Valerie Fischerové,49.1949311,16.5815492
296462910,node,K-Copy,49.1995852,16.6254048
296466548,node,Kavárna na Náměstí,49.2065231,16.694335
296468230,node,Centrum služeb Brno,49.2453468,16.580966
296474430,node,Veterinární ordinace,49.2037114,16.6907866
296477297,node,U Němců,49.2412367,16.5734699
296479983,node,"Drogerie - barvy, laky",49.2075036,16.6951249
296480829,node,"Římskokatolická farnost u kostela sv. Jakuba, Brno",49.1966443,16.6073691
296481350,node,Trikoty.net,49.2078513,16.6954037
296482788,node,Digitální tisk - TEEPEE.CZ,49.2021097,16.6200626
296483359,node,BLOKK,49.1943383,16.6047568
296486274,node,Kadeřnictví Elysee,49.1951014,16.6505132
296486467,node,Lékárna Cistronica,49.2129437,16.6350586
296487414,node,Kamera zabírající veřejný prostor,49.2188853,16.5528939
296490383,node,La plevela,49.1885738,16.596683
296494063,node,U Lasa,49.2093572,16.6240251
296494596,node,Wertgroup,49.1877277,16.6335578
296496147,node,Soukromá klinika LOGO s.r.o.,49.1772751,16.598066
296496412,node,MŠ Pohádka,49.2073356,16.6946457
296499274,node,Dům ochránců přírody,49.1933761,16.6080076
296499282,node,OTIS a.s.,49.1975969,16.6179561
296499747,node,"Římskokatolická farnost u kostela sv. Vavřince, Brno-Komín",49.2221785,16.5548712
296501600,node,Studio Bianca - Sporty Education Center,49.2052249,16.6259303
296501780,node,Bijou Brigitte s.r.o.,49.1952117,16.5864741
296503904,node,Vinotéka-AV,49.2302059,16.6330844
296505082,node,Pivnice Pegas,49.1961947,16.6071115
296506247,node,SANOMED,49.2255204,16.5933753
296507268,node,Gazebo,49.210851,16.6240049
296507350,node,Maják nadační fond,49.2369151,16.6232629
296508170,node,4pokoje,49.1957411,16.6117506
296509200,node,Mánesovy Koleje Masarykovy Univerzity,49.2317101,16.5864998
296512579,node,Pivnice U Míče,49.2092512,16.6049352
296516333,node,Guesthouse Nikol,49.1719729,16.6160033
296516846,node,Hasičský záchranný sbor Jmk,49.1639438,16.5619784
296517281,node,"Římskokatolická farnost u kostela sv. Vavřince, Brno-Řečkovice",49.2507929,16.5800628
296518669,node,Bystrcká Oáza,49.2188534,16.5053057
296521542,node,Autocentrum HAKR,49.1947249,16.6168387
296533271,node,Joker,49.1975947,16.6184824
296535907,node,Autonova,49.187611,16.6230613
296536662,node,Hospoda na Moravanské,49.1450346,16.6199088
296538119,node,Hotel Omega ***,49.1881644,16.5990416
296540326,node,Quality Hotel Brno Exhibition Centre,49.1843192,16.5805926
296548768,node,Odborná knihovna Masarykova onkologického ústavu,49.194825,16.5885424
296548824,node,Bazar Nábytku,49.1978738,16.6184899
296552277,node,Řempo-kars-čalounické potřeby,49.1964936,16.6161698
296552629,node,Chaloupka,49.2532662,16.5749146
296553854,node,Lázně města Brna,49.1970936,16.6076683
296555398,node,Pivovar Richard,49.2074119,16.4839328
296556238,node,Potraviny Bacom,49.2048943,16.5954643
296559002,node,C SYSTEM CZ a.s.,49.1921082,16.6474366
296562717,node,Kadeřnictví Bunová,49.2449679,16.5807376
296563164,node,Maso uzeniny Habásko,49.1923182,16.655612
296567193,node,U Lva,49.1892951,16.5940848
296568317,node,Sun masážní a bodystylingové studio,49.1975404,16.6184032
296570371,node,"R.C.P.R. - reality, s. r.o.",49.1990121,16.6226956
296570791,node,Moldavská,49.1694524,16.5838848
296574891,node,VEKO - trade s.ro.,49.188757,16.6324461
296579147,node,KidsMall,49.1883089,16.5952391
296579590,node,E.ON s.r.o,49.1985015,16.6216536
296581399,node,Penam,49.197286,16.6201336
296582386,node,Supradent,49.2065275,16.6199128
296582416,node,Fara ČCE - Sbor Brno I,49.1972145,16.6046778
296582765,node,Autodíly Rauš,49.2083109,16.6957904
296584256,node,Bastu interiéry,49.1969528,16.6169101
296584571,node,Bastu interiéry s.r.o.,49.1976793,16.6180808
296590053,node,"Lužánky – středisko volného času, pracoviště Louka",49.2074874,16.6568509
296590540,node,Vila Lída,49.2399823,16.5711492
296590552,node,"Lužánky – středisko volného času, pracoviště Lesná",49.2292134,16.6238981
296591392,node,ZONER software,49.1876097,16.6052787
296595695,node,Je tu milo,49.1994945,16.602556
296597742,node,Index Čechy s.r.o,49.1972998,16.6174358
296597906,node,Brno 21,49.2467834,16.582518
296604487,node,Kooperativa Vienna Insurance group,49.2001335,16.6258018
296605114,node,Sokol,49.1683864,16.5765821
296605363,node,Poison bite Tattoo a Piercing studio,49.2073696,16.60194
296607533,node,Urban Store,49.1954208,16.6072078
296608120,node,Jakoby,49.1969623,16.6085328
296611326,node,OMNI café & fit studio,49.2406586,16.5770182
296613386,node,Plánotisk,49.2002875,16.6035166
296613708,node,Autopůjčovna Brno - Comfort Car,49.1819403,16.6295482
296613899,node,"Římskokatolická farnost u kostela svatého Jiljí, Brno-Líšeň",49.2054395,16.6950299
296614728,node,Widex Line,49.1898905,16.584339
296615490,node,Radlas.cz ubytovna,49.1978001,16.6242953
296618167,node,Timo s.r.o.,49.1981453,16.6191472
296620839,node,Bistro Franz,49.1995359,16.6024906
296626596,node,Unicareal s.r.o.,49.1963861,16.5885778
296635281,node,KAMKAB!NET,49.1832618,16.5861107
296635499,node,"Lužánky – středisko volného času, pracoviště Lata",49.2172442,16.5809354
296638137,node,Two Faces Music Club,49.1921173,16.6059704
296644554,node,Mateřská škola Univerzitka,49.2077615,16.6189411
296646079,node,Koffein,49.1989506,16.5931669
296649861,node,Rašnerova pekárna,49.1974435,16.6176973
296653673,node,Chempex-HTE,49.2097427,16.5885194
296654245,node,Metro music club,49.194719,16.6100114
296656339,node,PEKOS,49.2054326,16.69485
296656463,node,Sbor dobrovolných hasičů Židenice,49.2046999,16.6403738
296660386,node,Finanční úřad Brno II,49.202123,16.6260539
296661369,node,Windpoint s.r.o,49.2000168,16.6257634
296668029,node,Syndenta,49.1901219,16.5828201
296670580,node,Elendris - Ubytování u kostela,49.1776595,16.6918088
296674323,node,Club Fléda,49.209866,16.6033523
296678533,node,IDEA nábytek s.r.o,49.1968183,16.6171263
296680546,node,EuroEducation - Образование в Чехии,49.197204,16.6011598
296681504,node,STIHL,49.2272286,16.5345184
296686888,node,FEO digital agency s.r.o.,49.1849022,16.6585116
296692034,node,La Casa Verde,49.192867,16.6349814
296693691,node,Cattani,49.1991369,16.6031279
296698281,node,Zubatá žaba,49.2201772,16.5934296
296698368,node,"Konstancie, patří PPV invest",49.218524,16.5529411
296700244,node,Duhový Ráj,49.2210454,16.6284401
296704766,node,OREA Wellness Hotel Santon,49.2309459,16.5184763
296723051,node,MIKE ROFT Studio,49.2143218,16.6012901
296759716,node,Renault Opportunity s.r.o.,49.2027336,16.6698944
296765154,node,Svatovavřinecký dvůr (Tukan),49.2515401,16.5812906
296767361,node,Zahradnictví Útěchov,49.287417,16.6304739
296826639,node,Autoškola Eliáš,49.1999879,16.6262701
297078170,node,Kasematy,49.1939194,16.5997838
297079809,node,Textilní galanterie,49.197258,16.6048418
298104441,node,Loosova,49.2315911,16.618987
299650403,node,"Šlapanice,Bedřichovice,rozcestí",49.1835346,16.7224727
299656707,node,Šlapanice (MHD),49.1665427,16.7259853
299660735,node,"Mokrá-Horákov, lom",49.226059,16.7566392
299679473,node,"Pozořice, Velké Lipky",49.2095209,16.7988624
299909914,node,Chata U borovic,49.2141721,16.7130756
299910480,node,"Líšeň, hřbitov",49.217503,16.7026482
301584262,node,Merhautova,49.2149381,16.6275193
301587447,node,"Modřice, Masarykova",49.1310663,16.6145708
301624447,node,Rebešovice,49.1018564,16.6352653
301625116,node,Otmarov,49.0991405,16.6658914
302110144,node,Hornek,49.2315165,16.7171867
302110158,node,Velký Hornek,49.2319291,16.7148703
302208285,node,Novolíšeňská,49.2017119,16.6703944
305478488,node,Bentel,49.0955346,16.7160138
305527311,node,Telnice,49.1016609,16.717849
305757821,node,Brno 20,49.1463549,16.6667542
305914419,node,Nový Lískovec,49.1822955,16.5606237
305914424,node,Bohunice,49.1680795,16.5846306
305914425,node,Starý Lískovec,49.1695911,16.5610137
306078215,node,Haškova,49.2335593,16.6245403
306078216,node,Na Kovárně,49.2545482,16.6208503
306375045,node,"SLATINA, Slatinka",49.1649136,16.6888468
307619657,node,"Modřice, Tyršova",49.129986,16.6037411
307681509,node,Modřická,49.1380707,16.6164085
307921894,node,Radnice,49.1278437,16.6146111
307922082,node,"Modřice, náměstí",49.1277455,16.6164665
307922161,node,"Modřice, smyčka",49.1272515,16.6044903
308596866,node,Běloruská,49.1706561,16.5806524
308609240,node,Poliklinika Lesná,49.2224739,16.6257053
308610696,node,Halasovo náměstí,49.2235474,16.6225973
308613959,node,Bieblova,49.2160793,16.6155136
309787012,node,Kníničky,49.2362633,16.5276942
309816283,node,"Česká, Nádavky",49.2746603,16.567832
309878900,node,Zábrdovice,49.1996529,16.6150593
309878902,node,Černá Pole,49.2121943,16.6230559
309878903,node,Ponava,49.2122425,16.5966644
309878906,node,Veveří,49.2019241,16.5952911
309878908,node,Stránice,49.2005758,16.579364
309878911,node,Lesná,49.2260605,16.6271651
309878913,node,Obřany,49.2288939,16.6443756
309878915,node,Maloměřice,49.2184875,16.6414204
309878918,node,Husovice,49.2122192,16.6313491
309878920,node,Židenice,49.1979615,16.6435716
309878922,node,Černovice,49.1858169,16.6439115
309878925,node,Trnitá,49.1911809,16.6181698
309878927,node,Štýřice,49.1811274,16.5965137
309878932,node,Dvorska,49.1380207,16.699725
309878933,node,Staré Brno,49.1877317,16.5994778
309878935,node,Dolní Heršpice,49.1558582,16.6217916
309878936,node,Horní Heršpice,49.1708391,16.6157609
309878937,node,Bedřichovice,49.1804088,16.7206527
309878938,node,Proseč,49.2846038,16.7585667
309925680,node,Vsetínská,49.1792218,16.5975101
309925685,node,Vojtova,49.1822074,16.6003225
309925689,node,Křídlovická,49.1847643,16.6027103
309925692,node,Soukenická,49.1885585,16.606969
309927722,node,Mutěnická,49.2039454,16.6548056
309928069,node,Bzenecká,49.2058,16.6616273
310787787,node,Pomník míru,49.1908698,16.6056466
314395247,node,"Benzina - Brno, Královopolská",49.2189948,16.5754426
315043667,node,Technická,49.2236341,16.5781458
315043695,node,Kolejní,49.2307011,16.5718567
315043696,node,Podnikatelská,49.2273397,16.576317
316038947,node,Dunajská,49.1694606,16.5553528
316039778,node,Kyjevská,49.1685121,16.5502891
316333234,node,Kroupova hospoda,49.1831242,16.3984019
316426147,node,Tetčice,49.17119,16.4092192
316427700,node,"Rosice, STK",49.1847741,16.4049764
316723878,node,pomník padlým,49.1705946,16.5081512
317675994,node,Univerzitní kampus,49.1786504,16.5674368
319839395,node,Horníkova,49.2118085,16.6765527
320936317,node,"MOL, Brno - Líšeň Sedláčkova 2",49.2018186,16.6671449
320945589,node,Masarova,49.2067344,16.6772814
322011848,node,Brno 28,49.2054697,16.6689385
322518499,node,"Újezd u Brna, obecní úřad",49.1046286,16.7572581
322518508,node,Újezd u Brna,49.1073083,16.7456061
322518513,node,Sokolnice,49.1141301,16.7216941
322518514,node,"Sokolnice, obecní úřad",49.1142042,16.7213135
322518515,node,Na Sokolovně,49.1141793,16.7209825
322518516,node,"Sokolnice, rozvodna",49.1148449,16.7048908
322518518,node,Sokolnická,49.1314108,16.6844571
322518530,node,Chrlická,49.14398,16.6650642
322518534,node,Revoluční,49.1501035,16.6618464
322518536,node,Glocova,49.1512342,16.6592133
322518538,node,Ivanovické náměstí,49.1536225,16.6537293
332291514,node,Kotlanova,49.2097882,16.6811401
335351423,node,Divišova čtvrť,49.2258596,16.6155373
335442525,node,Pomník italských karbonářů,49.193849,16.6037371
341508794,node,Jinačovice,49.2714119,16.5268793
342791615,node,"Sokolnice, železniční stanice",49.1083851,16.7327995
342795564,node,Restaurace Orlovna,49.1016246,16.718881
344417580,node,"Modříce, čistička",49.1318958,16.6335926
344461756,node,Lelekovice,49.2841435,16.5681186
346280750,node,Veverské Knínice,49.2368966,16.4018268
346564098,node,Penzion Patron,49.2417521,16.609095
346642790,node,Brno-Pisárky (MHD),49.193605,16.5711642
347315796,node,Hlína,49.1145414,16.4270891
347321713,node,Orelský klub,49.1056812,16.4683103
349152159,node,Nadevše je voda,49.2794964,16.6199641
349293915,node,Globus Brno,49.2620724,16.5764183
349305655,node,ABoil,49.2546781,16.5857395
349323126,node,Letovická,49.2452082,16.588145
349325297,node,Hudcova,49.2352556,16.5874229
353045765,node,Vladimíra Menšíka na Hlíně,49.1173898,16.4260786
353045769,node,Slávka Hledíková,49.1007695,16.4420128
353872168,node,"Kanice,Kaničky",49.2503998,16.7040074
353872315,node,Říčky (bus),49.2455301,16.7249945
353891386,node,Horní mlýn,49.2424605,16.7330939
353891389,node,Prostřední mlýn,49.2371964,16.7335823
353955325,node,Ořešínská,49.2735033,16.59993
354093965,node,Yacht club,49.2307386,16.5712674
354426137,node,Doležalova studánka,49.2763406,16.6314871
355508779,node,U Jelena,49.23703,16.7335529
355623806,node,Salaš,49.1107169,16.4702136
356253777,node,Pozořice,49.2097639,16.7907416
356257939,node,Mokrá-Horákov,49.2232246,16.7514592
356258007,node,Horákov,49.2165247,16.7475757
356662233,node,Prštice,49.1150174,16.4707614
357879276,node,"Prim Brno, Starý Lískovec",49.1728084,16.5550758
359862959,node,Kiliánova vrba,49.1738689,16.535789
359862969,node,U panenky Marie,49.1805585,16.5215253
359862985,node,Hoštická,49.1739676,16.5278385
361171310,node,Hotel Voroněž II.,49.1848252,16.5834834
362165265,node,Lokalita Červený kopec - Štýřice - Pisárky,49.1827664,16.5840418
362540268,node,Tvarožná,49.1907621,16.770404
362540278,node,"Tvarožná, sokolovna",49.1930649,16.7763127
362540780,node,Poustka,49.2055194,16.8018148
364065737,node,hlavní vstup,49.1754414,16.5696107
368338620,node,"Zetor, silnice",49.2007673,16.6699762
368607947,node,svatý Florián,49.1658211,16.5175267
368608070,node,sv. Florián,49.1766457,16.5287221
368675346,node,Sivice,49.2013587,16.7835622
368675355,node,"Pozořice, nám.",49.2099393,16.7904833
368675572,node,"Pozořice, Jezera",49.2154759,16.7954644
368978871,node,"Adamov III, točna",49.2897881,16.6622786
368989374,node,"Adamov, železniční stanice, točna",49.292097,16.670157
369643340,node,Lékárna Na Pekařské,49.19214,16.6043909
370827884,node,"Kovalovice, na kopci",49.2063178,16.8074085
372981843,node,Mariánský sloup,49.1914921,16.5948705
373110696,node,"Řečkovice, hřbitov",49.2534101,16.5822501
374215287,node,Mendelovo muzeum,49.1912999,16.5937953
374215317,node,Vinárna u Královny Elišky,49.1922246,16.5939549
374215338,node,Lékárna Fakultní nemocnice u svaté Anny,49.1904406,16.5962397
374215342,node,Army Store,49.1901042,16.59494
376303483,node,Divoký odsun 1945,49.1908255,16.5933158
376316392,node,Pivovar Starobrno,49.190702,16.5927707
377067487,node,Jolla,49.1952047,16.6431892
377071741,node,Don Antonio Pizza & Burger,49.1952897,16.6447628
377711252,node,Proškovo náměstí,49.2202282,16.6433574
377955061,node,William L. Kiggins,49.1774578,16.6911738
377955072,node,Pomník padlých,49.1773763,16.691173
378321208,node,Za Sedmero,49.287854,16.6306213
379030252,node,Přízřenice,49.145117,16.6200848
379107117,node,Žlutý kopec,49.1954048,16.5882816
382030081,node,Opravna obuvi,49.1944898,16.6419241
383991887,node,České Potraviny Mahovský,49.1951827,16.6458799
383991941,node,J+B autodíly,49.1950339,16.644726
383992006,node,Barvy - Laky,49.1947213,16.6433143
383992070,node,U Pánků,49.1942426,16.6417291
383992098,node,Milujeme kola,49.194173,16.6415302
387204370,node,Katalpa Josefa Přibyla,49.2022968,16.6051757
387706532,node,Dokonalá káva CZ,49.1939628,16.6408845
387706536,node,topDECO,49.1937589,16.6402085
387773428,node,Namaskar,49.1935414,16.6395473
387804439,node,Autobusové nádraží,49.1858491,16.6140511
387804440,node,"EuroOil Brno, Opuštěná",49.1846381,16.6120853
390321216,node,Líšeň - Vel.Klajdovka (MHD),49.213889,16.6812279
390842385,node,"MOL, Brno - Bítešská",49.1751077,16.5622194
392471747,node,Restaurace U Pece,49.1060729,16.4679614
392889527,node,Malá Macocha,49.2921984,16.698387
392963257,node,Cyklo Semir,49.1648037,16.7267182
392963587,node,Městská knihovna Šlapanice,49.1688845,16.7279699
393178544,node,svatý Petr,49.1913838,16.6071404
393178546,node,svatý Pavel,49.1913614,16.6071988
393178583,node,Diecézní muzeum Petrov,49.1913943,16.6073709
393178584,node,Biskupský dvůr,49.1912156,16.6083292
393217289,node,Masarykova Univerzita,49.1634183,16.7267575
393217393,node,PhysioDOG,49.1653425,16.7278671
393217771,node,Pho Vietnam,49.1659416,16.7224651
393827276,node,Šumbera (vyhlídka),49.2303159,16.6836731
393827277,node,S. K. Neumann,49.2303725,16.6837003
394042052,node,Marys,49.1900735,16.616202
394042055,node,Maximka,49.1901302,16.6157253
395500764,node,hasiči,49.2933305,16.6640207
402618648,node,"Mokrá-Horákov, sídliště",49.2211632,16.7519466
403882467,node,Čechyňská,49.1913166,16.623431
404743551,node,Zderadův sloup,49.191097,16.6276129
404790592,node,Tržní,49.1899816,16.6320976
405286993,node,"Radostice, koupaliště",49.1381129,16.4678688
405287002,node,"Radostice, mlýnská silnice",49.1355521,16.4748873
405287007,node,"Hlína, samota",49.1230883,16.4209953
408607531,node,Škroupova,49.1919985,16.647913
410411529,node,Na Bučině,49.1533294,16.4258985
411756282,node,Giant Store Brno,49.2012678,16.5998357
412537289,node,Sbor bratrské jednoty baptistů v Brně,49.2029696,16.6051466
413274320,node,nejsvětější Trojice (plastika),49.1774818,16.5278026
413548794,node,SSO Pražská,49.1741358,16.5282606
413675313,node,Penzion Kovárna,49.1737111,16.527575
416043025,node,Kulturni dum,49.1796927,16.7212923
416152399,node,On Air,49.1630461,16.5399498
416914954,node,Trojka,49.1931897,16.6064284
416950983,node,Nashville,49.247584,16.5815188
416950984,node,Restaurace a pizzerie U Schwarzů,49.2483863,16.5746696
417279128,node,Troják,49.1928744,16.5153158
417747961,node,ABC Cyklosport,49.1711442,16.5684888
417782387,node,Skácelova,49.2210989,16.5855693
418143966,node,Barka,49.2215046,16.5914394
418372845,node,Brechtova,49.2340895,16.6292684
418372846,node,Provazníkova,49.2144556,16.6240551
418372847,node,Lesnická,49.2130595,16.6190693
418372849,node,NC Královo Pole,49.2175778,16.6071328
418372850,node,U tunýlku,49.2227049,16.6177222
418372852,node,Královopolská strojírna,49.2240307,16.6068934
418372854,node,Mojmírovo náměstí,49.2258798,16.5971976
418372855,node,Högrova,49.2280726,16.6046246
418384489,node,Údolíček,49.2067656,16.644699
418384495,node,Vlčnovská,49.2109742,16.6601571
418384498,node,Mikulovská,49.2055095,16.6657937
418384499,node,Malá Klajdovka,49.1990203,16.6629094
418384501,node,Juliánov,49.196315,16.6540509
418384505,node,Otakara Ševčíka,49.1948056,16.6463298
418384506,node,Gajdošova,49.1983156,16.6460437
418384507,node,Svatoplukova,49.2051074,16.6414354
418384508,node,"Židenice, kasárna",49.2083109,16.6425069
418384512,node,Stará osada,49.2023142,16.6419699
418384513,node,Podsednická,49.2090293,16.6457453
418384514,node,Kulkova,49.2116879,16.6485964
418387495,node,Náměstí 28. dubna,49.2252253,16.5311056
418387498,node,Wollmanova,49.2222776,16.5224398
419060985,node,Moravanská rychta,49.1454026,16.5764335
419061785,node,"Moravany, Nebovidská",49.1479403,16.5687323
419635849,node,Velo Hanák,49.134741,16.6152106
422055749,node,Panna Marie,49.291334,16.6298858
425148558,node,Kola Šírer,49.1473169,16.6006764
428740723,node,Muzeum romské kultury,49.2005278,16.6233879
429217742,node,Satyrbike,49.2019333,16.6195301
429235399,node,Cacovický ostrov,49.2228862,16.6385801
429257196,node,U trabanta,49.1518468,16.6271266
429257198,node,Obětem 1 a 2. světové války,49.1597833,16.5491693
429257201,node,Poliklinika Starý Lískovec,49.1680907,16.5650487
429468394,node,Bělohorská,49.1896617,16.6624827
429481410,node,Brno 36,49.1928109,16.6520872
429609309,node,Bystrcká lípa,49.2253908,16.5269901
430797069,node,Lékárna Juliánov,49.1909678,16.6537561
430797070,node,Bat Beerhouse,49.1914765,16.6544625
432420532,node,Výletní,49.1916868,16.5391229
436583661,node,Filipova,49.2178447,16.5251824
436583694,node,"Bystrc, Černého",49.2140794,16.5227263
439172734,node,U Kaštanů,49.2031075,16.6186886
439178179,node,Městské Divadlo- Hudební scéna,49.2013189,16.6091851
439178366,node,Vinotéka MiStr,49.2040988,16.6237345
443109137,node,Na Cihelně,49.1464602,16.5391764
443109141,node,"Robert Bartl, myslivec",49.1488243,16.5289591
443603384,node,Knihovna Jiřího Mahena v Brně,49.1761642,16.5539396
443603391,node,Obchod pro tebe,49.2052414,16.6136108
443669178,node,"Chrlice, smyčka",49.1263895,16.6545813
443669181,node,"Chrlice, nádraží",49.1322069,16.656686
443669183,node,Chrlické náměstí,49.1352219,16.6540842
443669189,node,Šromova,49.1339191,16.6512604
443713335,node,"Střelice, ústav sociální péče",49.1516892,16.4700809
443713441,node,Na vopici,49.1483733,16.4232062
443713443,node,Svatoplukova studánka,49.1530964,16.4499471
443713448,node,Bobrava (rozc.),49.1543402,16.4552495
444634150,node,Brněnská přehrada (přístaviště),49.2299074,16.5177591
444727430,node,"Královo Pole, Srbská",49.2284901,16.5864175
445088231,node,Nebovidy - Závist (BUS),49.1347669,16.5285762
447564113,node,Nebovidy,49.1439329,16.5468401
447564115,node,"Nebovidy, dolní konec",49.1421409,16.5488013
447564119,node,"Nebovidy, u kostela",49.1416805,16.5536524
447564122,node,obecní úřad,49.1424,16.5537676
447564123,node,Na paměť osvobození Nebovid,49.1432277,16.5551923
447564126,node,Od farníků Nebovid,49.1459709,16.5621929
447564128,node,"Moravany, Hlavní",49.1470591,16.5785334
447564163,node,"Nebovidy, Závist",49.1346244,16.528507
447564169,node,"Střelice, rozcestí Radostice",49.1504746,16.4643201
448507148,node,Vlasta Holešovská,49.1521495,16.5043028
448687777,node,Popůvky,49.1761131,16.4921905
448687966,node,"Veverská Bítýška, hájovna Na Hlince",49.2516507,16.4292218
448688031,node,Mečkov,49.2611677,16.4435191
448688046,node,Sběrný dvůr pro recyklaci stavební suti,49.260461,16.4446076
448688050,node,U Matky Boží,49.2542841,16.4531185
448688070,node,U Matky boží (bus),49.2542247,16.4533335
448688073,node,Hrad Veveří,49.2546048,16.4614589
448688086,node,Hrad Veveří (bus),49.2547283,16.4615809
448688090,node,Lávka pod hradem,49.2601717,16.4651611
448688424,node,Ríšova studánka,49.2337544,16.4669811
448855996,node,Rakovec (bus),49.2280835,16.5085335
448855997,node,Rakovec,49.2279875,16.508504
448856002,node,Rakovec (rozcestí),49.2278602,16.503035
448856005,node,Pod Lípovým vrchem,49.2253193,16.4565595
448856013,node,Kozí horka,49.2361492,16.5044734
448856016,node,Rokle,49.2457208,16.4960537
448856018,node,Jelenice,49.250692,16.4850581
448856022,node,"Obora (hostinec, bus)",49.2556729,16.4756547
448856028,node,Junácká louka (lávka),49.2589663,16.4621209
448856029,node,Junácká louka (silnice),49.2588517,16.4641124
448872550,node,František Bašný (+1910),49.1911467,16.523526
448872554,node,Vlastislav Kroupa (+1944),49.1871965,16.5191083
449442774,node,Vrbovec (rybník),49.2089219,16.5246565
449442810,node,Vrbovec (rozcestí),49.2062247,16.5233634
449717699,node,AutoVacek s.r.o.,49.2234001,16.619032
450625976,node,Přírodní park Bobrava,49.1308498,16.508019
451558138,node,Divadlo Polárka,49.2082297,16.5980133
451558191,node,Zahradníkova,49.2081598,16.5991341
451558235,node,Severka,49.2076556,16.5979152
452326805,node,U Dřeváka,49.2091127,16.6009335
452326877,node,Indiges - Výtvarné potřeby,49.2097561,16.6028499
452326879,node,Tomáš Kočař,49.2096113,16.6029013
452326881,node,Vinotéka U rybníčku,49.2097058,16.6028777
452326911,node,Restaurace Divá Bára,49.210015,16.6026918
452326919,node,Lékárna Štefánikova,49.2102783,16.6025345
452326923,node,Optika Herlango,49.2100743,16.6026629
452326971,node,Zelená Optika,49.2100527,16.6016157
452326984,node,Táo Viet Nam Home Cooking & Sushi Bar,49.2101534,16.6020475
452327065,node,Andrea Zdubová,49.2098833,16.6010526
452668249,node,U Poláků,49.1172955,16.4719094
452668251,node,Tomáš Kožnar,49.0921761,16.4424163
452668353,node,Galerie Stříbský mlýn,49.0924755,16.4014329
452668354,node,Stříbský mlýn,49.0930419,16.4014693
452668355,node,Martálka,49.0937845,16.401669
452669819,node,Vývěry Říčky,49.2428128,16.7383009
452687916,node,"Slatina, nádraží",49.169667,16.6826296
452934730,node,Pod veselou horou,49.1158614,16.3971948
453440020,node,Sokolské Koupaliště,49.2421138,16.5137056
454638137,node,Hospoda U kocourka,49.1908063,16.6157555
454689403,node,Heinrich Wilhelm Ernst,49.1917294,16.6169013
454689413,node,Květiny V&Š,49.1916661,16.6164855
454689419,node,Autodíly Fiat,49.1916269,16.6162763
454689420,node,Mandragora,49.191525,16.6159991
454689422,node,Maxam,49.1915191,16.61577
454689423,node,Pivnice ve dvoře,49.1913742,16.6156807
454689424,node,Táňa Kmenta,49.1914509,16.6155064
454689425,node,Kovomat Zítka,49.1914214,16.6153438
455004420,node,Výletní Hospoda Princezna,49.2463091,16.5054093
455047039,node,SDH Lelekovice,49.2901824,16.5782096
455801994,node,Rozdrojovice,49.2519367,16.51363
456125955,node,Studánky v Podkomořanských lesích,49.2157154,16.5275336
456128627,node,PP Netopýrky,49.2337104,16.5528521
456212136,node,Vlasové studio SiJa,49.1929404,16.6374985
456212146,node,Beauty studio Lisa,49.1929677,16.6375878
456212192,node,Značkové autodíly,49.1932183,16.6384496
456314407,node,Pod medláneckým kopcem,49.2360024,16.5657801
456361223,node,Brno - Bystrc ZOO (MHD),49.2276232,16.5317319
457851812,node,Rybkova,49.205884,16.593604
459981870,node,Pivní sklep JASO,49.1536637,16.5045333
459981872,node,Coucou Café Restaurant,49.1540348,16.5032919
459981922,node,"Střelice, Vršovice",49.1534772,16.4803263
459981931,node,MOXMA.CZ,49.1526037,16.4928595
459981974,node,"Střelice, nákupní středisko",49.1528154,16.4937598
460340854,node,Cukrárna a vinotéka Na hrázi,49.1537224,16.5017306
460340857,node,Hrbek,49.1525226,16.5017105
460340858,node,"Střelice, obecní úřad",49.1526381,16.5028234
460340870,node,U Trnků,49.1524195,16.5033896
460340875,node,"Padlým vojínům ve světové válce 1914-1918, oběti války 1939-1945",49.1523548,16.5039901
463552817,node,Anthropos,49.1921153,16.5671639
463552820,node,Moravské muzeum - Pavilon Anthropos,49.1919879,16.5672269
464771828,node,Viktor Kaplan,49.1981344,16.5935471
465195853,node,Park Koliště,49.1963176,16.6141775
467154276,node,Kopce,49.2054653,16.509292
467154330,node,Borovník,49.1984177,16.4997833
467157741,node,Penzion Eliot,49.2106074,16.5031591
467778005,node,Bartolomějská,49.2035855,16.4894093
467807948,node,Brněnská přehrada - památník Františka Šikuly,49.2327902,16.5193381
468238722,node,Štouračova,49.2148228,16.5218413
469349419,node,Ústav sociální péče,49.150631,16.4704098
469422906,node,Helenčina studánka,49.2190943,16.4566522
469432974,node,Lipový vrch,49.2234497,16.4584936
470223351,node,"MOL, Řečkovice - Palackého",49.2361999,16.5870972
471605659,node,Juventus,49.1963379,16.5407512
471781022,node,Виктор С. Кашутин (+1945),49.1986514,16.5244363
472074392,node,Time-Out,49.2463602,16.5878403
472094016,node,obětem nacismu,49.1328493,16.4796024
472094064,node,"Radostice, sokolovna",49.1324789,16.4790526
472401173,node,Pracký kopec,49.1279484,16.76352
472488094,node,Lékárna Na Cejlu,49.1966902,16.6164251
472488098,node,Brno - Bohunice I2,49.1756917,16.5693622
475371233,node,"Střelice, dolní železniční stanice",49.1559739,16.5044775
475528141,node,Jiří Žemlička (+1968),49.1741336,16.5696667
475561789,node,Pratecká,49.146275,16.6813837
476018272,node,"VALMONT CR, spol. s r.o.",49.1724569,16.5537679
476282917,node,Střelická bažinka,49.1463655,16.4658832
476303625,node,"Ořechov, kravín",49.1085133,16.4961227
476315621,node,Café Falk,49.2000241,16.5991
476315629,node,Čtyři růže,49.2006111,16.600787
476315630,node,Laguna,49.2007871,16.6008185
476315631,node,Restaurant Namaskar,49.200964,16.6006547
476315641,node,ZUŠ Smetanova,49.2010449,16.6015089
476315653,node,Smetanova,49.2013471,16.6022058
476315654,node,Lékárna Aventa,49.19823,16.6055134
476315746,node,Poliklinika akademika Otakara Teyschla,49.19868,16.6029713
476315747,node,VOŠ zdravotnická,49.1985467,16.6027758
476315748,node,Sál B. Bakaly,49.1983263,16.6027514
476881566,node,Hvozdec,49.2471043,16.4256537
477075018,node,"Rosice, Brněnská",49.1829482,16.3980554
480057077,node,Knihovna Univerzitního Kampusu,49.1770273,16.5706147
480057080,node,Lávka,49.1780298,16.5707318
484248079,node,Klášter dominikánek,49.150694,16.4722393
484787978,node,"Ochoz u Brna, rozcestí Kanice",49.2625002,16.7296238
485923048,node,Pátá meta,49.167572,16.623859
487850066,node,Buk u Jeleního žlíbku,49.2406072,16.4826038
489356486,node,Tank Ono - ČS Brno-Popovice,49.1028402,16.6032826
489589587,node,pomník padlých,49.2584951,16.6933061
490550087,node,Holasice,49.2826765,16.4068052
491741054,node,Šilingrovo náměstí,49.1921709,16.605182
492136292,node,Konečného náměstí,49.2049317,16.5958254
494086116,node,Památník Josefa Zenkera,49.2847351,16.6693161
494332733,node,Vila Stiassny,49.1969751,16.5729077
494332739,node,Kubova vila,49.2518484,16.5888124
504918684,node,Švábský kříž,49.1971712,16.6016317
519321828,node,U Kozáka,49.2138788,16.5744591
519325491,node,Grohova,49.2011244,16.5997404
519325495,node,Mozolky,49.2135898,16.5749663
519325497,node,Burianovo náměstí,49.2124472,16.578382
519325498,node,Králova,49.2111717,16.5836546
519326004,node,Borgo Agnese,49.1915338,16.6015512
519340942,node,Komenského náměstí,49.1971541,16.6026762
519340949,node,Obilní Trh,49.1982561,16.5974671
519340953,node,Tvrdého,49.1969066,16.5928911
520778170,node,Hudba,49.1967911,16.5336986
521770700,node,Potraviny Fajtl,49.1689907,16.7276032
524491950,node,"Popůvky, Náves",49.178138,16.4879572
524491999,node,"Popůvky, Vintrovna",49.181813,16.490518
527798237,node,Quattromedica,49.2048548,16.5985892
527798238,node,Lékárna u Hippokrata,49.2044865,16.598976
527798244,node,Dobrák,49.2181184,16.5890116
530798449,node,"Bílovice nad Svitavou, železniční stanice",49.2425962,16.6737964
539182630,node,Pomník vojákům Rudé armády,49.1094485,16.5260832
539182640,node,Památník Obětem 2. světové války,49.109503,16.5264829
544178783,node,Cosmopolitan Bobycentrum,49.2121747,16.6080133
544458154,node,Hotel Myslivna,49.1886673,16.5538418
544459843,node,Na Trati,49.1885494,16.53401
544519918,node,Bohunická,49.1618403,16.5992559
544519920,node,Ořechovská,49.1581549,16.5998867
544602819,node,Brno 23,49.195246,16.5394178
544602836,node,PharmaPoint,49.1969669,16.5337583
548314591,node,Velká baba,49.2623506,16.5509569
548314603,node,Malá baba,49.2536994,16.5533861
549089870,node,Žuráň,49.1797553,16.7384239
549101009,node,Omický les (rozc.),49.1828555,16.4286165
549101265,node,Nad Omicemi,49.172851,16.4623724
549289985,node,Studánka v Perglu,49.250416,16.561235
549550402,node,Palackého vrch,49.2250046,16.5680767
550472110,node,"Antonín Kučírek, zastřelen od pytláků 1905",49.2597553,16.5559094
550472178,node,Vychodilova,49.2204537,16.5717557
552792697,node,Kavárna MonRo,49.205534,16.6174369
558626013,node,Bosně,49.2466646,16.5578883
559172711,node,Dolní rybník,49.2423289,16.5953825
559198024,node,Brno 5,49.1986415,16.588259
559694607,node,Přírodní park Baba,49.2792597,16.5615777
559694610,node,U Marušky,49.2733171,16.542489
559694613,node,Kuřimská hora,49.2918385,16.5321979
563883049,node,Mateřská škola Zemědělská,49.2121738,16.6223903
565513083,node,Hostěnice (rozc.),49.2423003,16.7623278
566341439,node,Zaječí pramen,49.2427727,16.61504
566582735,node,Obora Holedná,49.209885,16.5444557
566974705,node,0 km D2,49.1594277,16.6311807
567073823,node,Semilasso,49.2280554,16.5932605
567191837,node,Heršpická,49.1704424,16.5999235
567334341,node,Kaple svatého Peregrína,49.1246024,16.5484843
568496132,node,Bar Marco,49.1948849,16.5395731
568522544,node,"Modřice, žel. st.",49.1335338,16.6067003
568525728,node,Autobusové nádraží Grand,49.1934228,16.614443
568570500,node,Pétanque,49.2060349,16.6068636
568570517,node,Dopravní hřiště,49.2082663,16.6081373
568570785,node,Brno 13,49.211472,16.6225217
568570959,node,Dětské hřiště,49.2207156,16.6248382
568570960,node,Hřiště pro streetball,49.2207397,16.624561
570085672,node,Záhřebská,49.2198538,16.5796539
573449376,node,Mniší hora,49.2390422,16.5353169
574986495,node,Santander,49.1926016,16.563435
574997991,node,Antonína Procházky,49.1935734,16.5615893
575895720,node,Klub turistů a lyžařů Brno,49.1975575,16.5991529
575895802,node,Cupák Domácí dílna,49.2004194,16.6005389
576176016,node,Clubwash,49.1994774,16.6179362
576176023,node,Menza Starý pivovar,49.2267217,16.5950105
577277878,node,Nadační,49.2455417,16.571102
577279705,node,Pergl (prm.),49.250473,16.561304
577564942,node,Textilní kombinát,49.1824737,16.637527
579645839,node,Haribol,49.2042898,16.6082315
579743467,node,"Prim Brno, Židenice",49.2080242,16.6474198
582498699,node,Pizzeria Al Capone,49.2103992,16.6014543
582500113,node,Kavárna Spolek,49.1938043,16.6126442
583546565,node,Ústřední hřbitov,49.1712229,16.5973372
584890022,node,Adria,49.1917898,16.6107821
590080242,node,katalpa trubačovitá,49.1766158,16.5259648
590080409,node,plynová stanice,49.1781677,16.5277957
590196129,node,Kola Nakládal,49.2060027,16.637358
592367175,node,Midlochův pomník,49.2845092,16.6285785
597614376,node,Tranzitní plynovod,49.1742344,16.5223572
599193792,node,"Ořechov, Jeřábkova",49.1088472,16.5120941
601663498,node,Pizzeria La Gamba,49.2224266,16.624084
602658028,node,"Obřanská, u školy",49.222549,16.6446897
602658057,node,Čtvery hony,49.2256302,16.6449612
602658060,node,Obřanský most,49.2272558,16.6491211
602658063,node,Hlaváčova,49.2292219,16.6489347
602658079,node,"Obřany, sídliště",49.2356316,16.6440307
602658099,node,Bílovická,49.2325182,16.6488196
603039641,node,Vegalité,49.2003917,16.6025416
603235287,node,Mojmírova,49.1438649,16.492258
603770472,node,Libušino údolí,49.1955417,16.5553765
603903807,node,RentBike,49.2132896,16.5695553
603903810,node,Libor Matoušek,49.202002,16.7152247
606648380,node,Kanas,49.2279126,16.5761973
607366795,node,Šelepka,49.2127031,16.5939331
610771136,node,V markrabství,49.252606,16.5608121
610771176,node,Lišky,49.2567362,16.5609968
610771217,node,Velké díly,49.2561781,16.5662501
610771497,node,V nivách,49.2617889,16.563067
610771517,node,Ivanovická studánka,49.2664709,16.5501284
610810860,node,Kejdovky,49.2601962,16.5321105
610810862,node,Za sýčkami,49.2617793,16.5318299
610892740,node,Ostrá hora,49.2773004,16.5626467
610892741,node,Šiberná,49.2883094,16.5557543
613092743,node,Technologický park,49.2313614,16.5770385
613140960,node,Vozovna Husovice,49.2081168,16.6296298
613140972,node,"Obřany, Babická",49.227985,16.6525791
613184037,node,Pizzerie Mozzarella,49.2312217,16.5706552
613184039,node,Menza Kolejní,49.2316159,16.5700819
613184040,node,Caffé Bar Piccolo,49.2314242,16.570507
613375169,node,Palacký,49.2316944,16.5700243
613526546,node,U Oslů,49.2031936,16.5990667
613526547,node,Na dobré cestě,49.2028729,16.5984283
613526567,node,Kometa Pub,49.2030118,16.6008123
613852165,node,Kuldova,49.2021286,16.6358298
613852167,node,"Židenice, nádraží",49.2032779,16.6366573
615065397,node,VK cyklosport,49.2127734,16.5778947
617309095,node,Husitská,49.2240698,16.5940601
617309111,node,Pomník padlým příslušníkům Rudé armády,49.2275734,16.5958562
619353708,node,Obřanský hostinec,49.2299059,16.6455411
619562642,node,Letiště Tuřany,49.1548107,16.6934403
619562681,node,Řípská,49.1739687,16.6818762
619562687,node,Šmahova,49.1712868,16.6853362
619562696,node,Brněnky,49.1789332,16.6748592
624603244,node,Sušilova,49.2043048,16.598674
624603273,node,Botanická,49.2107735,16.5975041
626942325,node,Ruský vrch,49.2195087,16.5522982
628053716,node,Šelepova,49.2128384,16.5962724
628053720,node,Charvatská,49.2195304,16.5921963
628053725,node,Slovanské náměstí,49.2227727,16.5919442
628085290,node,Hutařova,49.2262682,16.5881376
628214353,node,Kamenolom,49.2217161,16.5369424
628214356,node,Svratecká,49.2188223,16.5543192
630425340,node,bratři Mrštíkové,49.1981417,16.611997
631575049,node,"Rajhradice, váha",49.0936023,16.6354726
632624842,node,Na závisti,49.2699217,16.5376582
634892487,node,Centrum 8D,49.2025946,16.5880873
634892534,node,Protiletadlový kryt,49.2020971,16.5925019
634995859,node,RK cyklos,49.2035033,16.595341
637788742,node,Socha TGM,49.1966649,16.6032667
639258886,node,sloup Nejsvětější Trojice,49.1921737,16.6082658
643267618,node,Mendlovo náměstí,49.1902881,16.5932307
643267798,node,ZŠ Mendlovo nám.,49.1912532,16.5960879
643275387,node,MŠ Mendlovo nám.,49.1910636,16.5961131
643275389,node,Gymnázium J. G. Mendela,49.1911203,16.5959223
643275391,node,I. Německé zemské gymnasium,49.1911326,16.5963403
644609087,node,Lékárna u vrátnice,49.2037379,16.6180074
644611243,node,Restaurace na Chatě,49.2086405,16.615112
644947323,node,Nový věk,49.1885633,16.5859235
647860810,node,Generální konzulát Ruské federace v Brně,49.1928326,16.5743412
647885009,node,Moravské zemské muzeum,49.1917517,16.6085842
647885052,node,Etnografický ústav MZM,49.1954179,16.6091422
649101081,node,Topol kanadský,49.1293359,16.6537707
649101087,node,Leopold Šrom,49.1323967,16.6437218
652426622,node,Alvin,49.2402734,16.5742224
652430531,node,Stronghold,49.2382272,16.5831272
652439783,node,MUDr. Pavel Chadim - NEUROLOGIE - REHABILITACE s.r.o.,49.2360739,16.5835125
652440778,node,"Medlánky, škola",49.2384412,16.5779034
652493682,node,Borodinova,49.196544,16.5454018
652493756,node,Libušina třída,49.198019,16.5480896
652841429,node,Jírovcova,49.1882943,16.5338862
652841431,node,Pavlovská,49.1895463,16.5313134
652841433,node,Talichova,49.191596,16.5297405
652841435,node,Bellova,49.1939339,16.5309284
652841437,node,Voříškova,49.1964223,16.5340806
652841439,node,Stamicova,49.1949988,16.5396311
652841441,node,Glinkova,49.1939816,16.5442487
652841452,node,Výstaviště - hlavní vstup,49.1896237,16.586415
653283073,node,Ki-Ki,49.1954585,16.539865
653700167,node,Čtvrtě,49.1779819,16.5615571
653700253,node,Kluchova,49.1833057,16.5632292
653700269,node,Lesní,49.1853979,16.5647401
653700307,node,Pod Jurankou,49.1988675,16.5660895
653700320,node,"Jundrov, hřiště",49.2046565,16.560234
653700357,node,Optátova,49.2083021,16.5555316
653700385,node,Jundrovský most,49.2094856,16.556824
653700392,node,Vozovna Komín,49.2144091,16.5598146
653700459,node,"Nemocnice Bohunice, pouze výstup",49.1757856,16.5675099
653700474,node,Vrázova,49.2169507,16.5682602
653700499,node,Přívrat,49.2182835,16.574066
653700512,node,Makovského náměstí,49.2179308,16.5767664
653700550,node,Jindřichova,49.2130655,16.5833025
653700579,node,Náměstí Svornosti,49.2157435,16.5816625
653700608,node,Klusáčkova,49.212391,16.5926543
654215651,node,Tomanova,49.2080323,16.6203544
654461094,node,Medlánecký rybník,49.242886,16.570152
654588693,node,Holedná,49.2132118,16.5378492
656077376,node,Strážná,49.2791654,16.5759545
656228075,node,V hluku,49.2798292,16.579283
656601908,node,FIT CENTRUM MACHINA,49.2318921,16.5711273
658824455,node,Malý medlánecký kopec,49.2382246,16.5682778
659951201,node,Štefánikova ulice,49.2153165,16.5991648
659963093,node,Jezerůvky,49.258119,16.5691394
660088369,node,Tikovice,49.1074924,16.5129005
660128512,node,Akerlíky,49.1101552,16.5168892
660183882,node,Zákřiby,49.1080999,16.7501216
660187434,node,Za mlýnem,49.1146211,16.7909905
660194825,node,Nad hliníkem,49.110088,16.7316114
660573903,node,Nálepkova,49.2088177,16.5523462
660573907,node,Svratka,49.207602,16.5549117
660630478,node,Suchý díl,49.0922411,16.4081043
660630486,node,Kalce,49.0932747,16.4084632
660631268,node,Za silnicí,49.0977545,16.4470835
660644800,node,U Konkurence,49.2119591,16.6201616
660653056,node,Květiny Altmanová,49.2109062,16.6204733
660657002,node,Kopaninky,49.1027907,16.4695997
660657109,node,Na vývozech,49.1048925,16.4755283
660657145,node,Za Humny,49.1124999,16.4699849
660740245,node,"Troubsko, Nová",49.1670046,16.5181737
660803751,node,Pomník Františka Palackého,49.2251674,16.5676276
661184730,node,Nebosady,49.0932441,16.4725256
661184781,node,Záhumenice,49.1033479,16.4620982
661211575,node,Hofluňky,49.1063957,16.5005975
661211576,node,Pod dědinou,49.1020303,16.50928
661211837,node,Na čtvrtkách u kříže,49.1137498,16.4796809
661235525,node,Veteran club,49.1646715,16.5780659
662022877,node,Rybníky,49.1223031,16.4805239
662022887,node,Padělky,49.1228089,16.5136209
662022901,node,Malá ketmanka,49.1221922,16.5236643
662022915,node,V rybníčkách,49.1240583,16.5253329
662022921,node,V Hojnarkách,49.1201172,16.5488981
662022924,node,V jámě,49.1203767,16.5558471
662976986,node,Kampelíkova,49.1973997,16.5811748
663040723,node,LékárnaBeloruská,49.1696135,16.5803133
663040761,node,Sedmikráska,49.1699411,16.5813261
663040775,node,Zvaž to - bezobalový obchod,49.1698728,16.5811264
663040826,node,Leguana,49.1699518,16.581535
663040935,node,Brno 30,49.1697825,16.5819968
663041275,node,Sbor dobrovolných hasičů Bohunice,49.1707449,16.5862192
663379335,node,"Tuřany, smyčka",49.1416833,16.6667872
665497453,node,Menza FCH,49.2314618,16.577835
665497753,node,Bufet FCH,49.2315003,16.5780213
665498252,node,Bufet FEKT,49.2257511,16.5756361
665498698,node,Restaurace Q,49.2236546,16.577492
665498701,node,Bufet FSI,49.2246395,16.5766711
665738373,node,BROSCAR,49.2368172,16.5873809
665746980,node,Zdravotní středisko Bánskobystrická,49.2429332,16.5825025
665769079,node,Zdravotní středisko Vránova,49.2476458,16.5807246
667010197,node,Korejská,49.2147944,16.5775699
667445668,node,Tovární,49.133326,16.6733782
667760326,node,Tomáš Němec,49.1804438,16.5618746
667998459,node,Nivky,49.1080777,16.4704864
667998539,node,Velké horky,49.1095691,16.4702159
667998952,node,Bučín,49.1337404,16.423161
667998975,node,Spálené seno,49.1332232,16.4568774
667998982,node,Pepernice,49.1417,16.4607005
667999012,node,Zátoky,49.1419657,16.4663293
669429551,node,"Viliam Debnár, * 9. 11. 1938, † 21. 8. 1968",49.2031435,16.6672469
669464894,node,Miroslav Tyrš,49.2007098,16.6451632
669485475,node,Zimní I,49.2131943,16.6588031
669485482,node,Červený písek,49.2204793,16.6573818
670215924,node,Jinej Bar,49.1963133,16.6089
676518470,node,Restaurace Na Městečku,49.2762168,16.4360191
676552626,node,Veverská Bítýška,49.2745768,16.437776
676829303,node,U jezevce,49.2654924,16.6420519
676829314,node,pramen D. J. Kašpara,49.2582482,16.6555831
679480700,node,Brno 37,49.2084962,16.5551908
679480702,node,Lékárna Atlas,49.2088697,16.5551555
682400875,node,Čajovna Inaris,49.2106352,16.6023169
683092744,node,HUNSGAS,49.0953268,16.6009158
683266516,node,Rybárna Šopík,49.2280254,16.5954702
702915974,node,Kočičí žleb,49.2295351,16.4841931
703623169,node,Památník Bohuslava Fuchse,49.1944518,16.5806249
707989273,node,Zdravý Život,49.1985219,16.6007629
708859543,node,Pegas,49.2030931,16.5958923
712946373,node,Weinerka,49.1768087,16.6415466
713204113,node,Lovec sobů,49.1932736,16.5670754
735827442,node,Za Bobravou,49.111646,16.6006217
740696624,node,Rytířská krčma,49.2009971,16.6071971
746491082,node,L'Eau Vive,49.1910165,16.6081152
747191342,node,Trias,49.214776,16.5895377
760685490,node,Studánky mezi Ponávkou a Svitavou,49.2335919,16.6152814
761749643,node,Chytrá lékárna,49.190325,16.5940165
761749648,node,Gingilla,49.1871967,16.5943262
761749651,node,Vídeňka,49.1839339,16.5952444
761749658,node,Borgeska,49.2229613,16.5950459
762928534,node,Střelice (žst),49.1540639,16.4825542
764415628,node,STK Autocentrum Jiříkovice,49.1776078,16.7622945
765181327,node,Stromy,49.2644955,16.6839936
765181560,node,Co je stezka zdraví HVOZD,49.2637246,16.6879452
765181595,node,Arboretum Řícmanice,49.2642378,16.6842174
765181699,node,Lesní palouk Brněnka,49.2644041,16.6866424
765511805,node,pomník dr. Miroslava Tyrše,49.2476848,16.6736977
765961044,node,Pro Silva,49.2515564,16.692729
765969741,node,Nad Arboretem,49.2637419,16.6879148
765995620,node,Babice nad Svitavou (bus),49.284566,16.6968537
766002495,node,Babice nad Svitavou (rozcestí),49.2883134,16.6973924
766433897,node,Helas,49.248747,16.585837
766496388,node,Srnčí studánka,49.2728517,16.7042293
766549601,node,Výpustek,49.2910864,16.7241434
766549626,node,Drátenická jeskyně - vedlejší vchod,49.2913468,16.7275343
767305977,node,Flash Boulder Bar,49.1825122,16.5923499
768066115,node,ADAM LUBOMÍR,49.2098713,16.5504945
770292053,node,"Bukovina (rozc., bus)",49.2895946,16.7640644
770292189,node,Ochozská jeskyně (rozc.),49.2431844,16.7470302
771191496,node,Památník hrdinným sovětským letkyním za druhé světové války,49.2866219,16.7164504
771194663,node,Přírodní rezervace Údolí Říčky,49.2431899,16.7470815
771952627,node,Výpustek-Vstup,49.2908588,16.7239724
793192741,node,Krmiva U jacka,49.208838,16.5559466
797334819,node,Water element,49.2109193,16.5558286
797334823,node,Rebelbean,49.20892,16.5557818
797334827,node,Hasiči Jundrov,49.208466,16.5530778
797334828,node,Teta Drogerie,49.2082755,16.5551678
797334829,node,Don Antonio,49.2090792,16.5554541
797334836,node,Brumla motocross shop,49.2088513,16.5549621
810291255,node,Přírodní památka Augšperský potok,49.1958798,16.4713292
810291411,node,Kývalka (mhd),49.1904484,16.4559653
816075189,node,Adamov – Ptačina,49.2913805,16.6644699
816224391,node,Útěchov (rozc.),49.2894944,16.6305848
835434596,node,Pod Ronovem,49.2774075,16.673334
836534083,node,Restaurace Parlament,49.1649332,16.610487
836534148,node,Bidláky,49.1784368,16.6061893
837559065,node,Brno 11,49.2046415,16.5988054
843811337,node,MČ Nový Lískovec,49.1762192,16.5539339
843845753,node,Pneuservis Bílý & syn s.r.o.,49.1751844,16.5831809
844207471,node,Starobrněnský šenk,49.1795463,16.5488961
844207481,node,Saffron,49.1784736,16.5626372
846265845,node,Khaybar,49.2040441,16.6204052
846952906,node,Mestska policie,49.209485,16.6305922
846953382,node,U Labužníka,49.210445,16.6331542
846953558,node,U Dubu,49.2111986,16.6313306
846953819,node,Optik Otava,49.2110188,16.6329912
847244360,node,Milan Hájek,49.1761631,16.5536446
847565053,node,Academic restaurant,49.1774794,16.566649
848401123,node,Obětem táborů nucených prací 1948–1952,49.2054881,16.6043973
850619298,node,Miloš Mazánek,49.2113313,16.6331905
850619299,node,SDH Brno-Husovice,49.2121314,16.6335199
850619302,node,ZŠ Jana Ámose Komenského,49.2116791,16.632182
850619303,node,Rychta Růžový panter,49.2127389,16.6348665
850619304,node,Gymnázium Elgartova,49.2121205,16.6324443
850653682,node,OA Emila Holuba a SŠ veterinární prevence,49.2109264,16.6338773
850653698,node,Potraviny Staňková,49.2101561,16.6331867
850653708,node,Balabán,49.21163,16.6344347
850653719,node,Husovická Sokolovna,49.2133712,16.6359823
851256431,node,Osa dálnice,49.1841561,16.5517849
851587392,node,Horákův žleb,49.217342,16.4812131
851587403,node,Nad Podkomor. myslivnou,49.2235262,16.4345636
851587405,node,Podkomorská myslivna,49.2241229,16.4328571
851587409,node,Pod Komorou,49.2254498,16.4271727
851624702,node,"Žebětín (nám.,MHD)",49.207085,16.4871042
853187861,node,Amfora,49.2135902,16.6349513
853189877,node,Osmička,49.2131858,16.635392
870409825,node,cykloservis Václav Magda,49.2218992,16.5860957
872023960,node,Pod Ríšovou studánkou,49.2348107,16.4649859
872023970,node,Penzion Nad Roklí,49.2473352,16.4819807
872041162,node,Sinice,49.2481639,16.4935159
872041163,node,U kotvy,49.2411558,16.5015661
877760218,node,U Jana,49.166856,16.7298994
877760240,node,Bistro Park,49.1689716,16.7245418
877760250,node,"Šlapanice, Riegerova",49.1683539,16.7259528
877768912,node,"Šlapanice, Čechova",49.1660903,16.7215715
877768920,node,"Šlapanice, sídliště",49.1670989,16.7184016
879480868,node,Kutilka,49.1655531,16.7258507
879480873,node,Květiny Bednářová,49.1654361,16.7267859
885494788,node,Líšeň - Mariánské údolí (MHD),49.2039162,16.7168322
885495089,node,U Borovice (host.),49.2142832,16.7135982
885495196,node,Pod Hrádkem (pod hrází),49.2162301,16.7196322
885496520,node,Muchova bouda (hostinec),49.220915,16.7183295
885496538,node,Horákovský hrad (zřícenina),49.2197804,16.7155777
885533873,node,Říčky (koupaliště),49.2342206,16.7254547
897050269,node,Heleny Malířové,49.2235241,16.6294854
897050271,node,Arbesova,49.2257245,16.6305374
897050272,node,Blažkova,49.2295286,16.6311354
897977683,node,Rosnička,49.2064299,16.5752375
902511626,node,Jiří Mahen,49.1979611,16.6094974
913808746,node,Líšeňský vrt,49.2083054,16.7161515
917366056,node,Košuličova,49.1645806,16.6097214
917366646,node,"Benzina - Brno, Kaštanová",49.1654547,16.6298124
918827201,node,Hvozdec (bus),49.2470213,16.4266654
918827310,node,Javůrecké polesí (rozc.),49.2550725,16.3946352
920045073,node,Šlapanice,49.1687841,16.7135992
923747966,node,Motorcity,49.1944905,16.6336138
927231858,node,Brno 38,49.2321133,16.6269944
928492721,node,Brno 1,49.1942493,16.6133068
928492727,node,TIC Brno,49.194605,16.605769
929268136,node,Úvodní tabule (Svatoplukova studánka),49.1528699,16.4522629
929268148,node,Historie revíru Bučín,49.1500243,16.4542465
929287668,node,"MOL, Brno - Sportovní",49.2344114,16.5913581
932727436,node,Obřanský hrad,49.2348006,16.6743716
937890377,node,Café Bistro,49.1716637,16.4093868
937890378,node,U Crlíků,49.1699123,16.4057416
937890383,node,U Ševčíků,49.1671575,16.4033595
937890386,node,Crlík,49.1696906,16.4055636
938749457,node,Pekárna,49.2420229,16.7461318
939251630,node,Vysoká škola obchodní a hotelová,49.1655449,16.5550901
942927416,node,Švanda,49.1944718,16.6101558
942941201,node,Špalíček,49.1923021,16.6081216
944362869,node,VELMA,49.1897685,16.5943289
944527181,node,Čajovna Starý dvůr - closed,49.1900466,16.5951939
945418344,node,Pomník Leopolda hraběte Lažanského,49.1980914,16.6076205
945418374,node,Karel Never Sleeps,49.1983495,16.6021802
945816814,node,Hotel Slavia,49.1963066,16.6048081
946164961,node,Lichtenštejnské výroční památníky,49.2942284,16.6638315
948572789,node,Klicperova,49.2024185,16.6880655
948590451,node,Bike Arena Netroufalky,49.1834778,16.5704749
950717682,node,U Richarda,49.2073769,16.4839073
952977466,node,Hostěnické propadání II,49.2416968,16.7576545
953206602,node,Partizánská studánka,49.1428906,16.4455779
953267658,node,studánka Na Ostré,49.2595154,16.4046721
953394871,node,Prosba lesa,49.2661253,16.6848681
953502214,node,pramen A. Dyka,49.261682,16.6525378
953708631,node,Soví studánka,49.2570507,16.4938291
953810688,node,pramen Romzy,49.1528073,16.7977703
954775859,node,Flóra na Bučíně,49.1441416,16.4294074
954775863,node,Vodní režim,49.1473445,16.4446454
954775866,node,Fauna na Bučíně,49.1457303,16.4343284
955169431,node,Buk lesní červenolistý,49.2173604,16.5983303
970710236,node,Knihovna Jiřího Mahena v Brně (pobočka Brno-Líšeň),49.2076194,16.6859423
972678797,node,Lékárna U Černého orla,49.2122884,16.5794555
972682399,node,Jan Kuzel - Houslař,49.2109831,16.5760791
974278861,node,Nad Ríšovou studánkou,49.2331971,16.4654552
978382872,node,Vilem Kuzel - Violinmaker - Houslar,49.1907408,16.6044609
979616742,node,Pod Trnůvkou,49.2577104,16.4814577
979636631,node,U Štíra,49.2287835,16.5329825
986150568,node,socha Dvojice,49.2045134,16.5975907
987015843,node,DRFG Arena - vstup,49.1848393,16.6021625
987015867,node,Poříčí,49.1873804,16.5945438
987498888,node,Faust Burger Pub,49.2023095,16.59612
987880949,node,Cyklistická (příst.),49.2579478,16.4814962
987881105,node,Nad Rozdrojovicemi,49.25509,16.50355
987921032,node,Nad Zouvalkou,49.2620237,16.4634179
987921084,node,U tří křížů (rozcestí),49.2783512,16.46202
988151004,node,Před Dolním Mlýnem,49.277891,16.4579745
988172221,node,Pomník T. G. Masaryka,49.2549325,16.5078884
988172527,node,U Jeroušků,49.254596,16.5050048
989223666,node,Stinská (rozc.),49.2146749,16.4555047
989405098,node,"Troubsko, Veselka",49.1768637,16.5034994
999546871,node,Bio Point,49.1913222,16.6134779
1018961916,node,Vápenec na Hádech,49.2178132,16.6759803
1035840718,node,památník Bitvy tří císařů,49.140856,16.7933072
1041606008,node,hrušeň Šmigule,49.212982,16.7863146
1045544576,node,kaple Mitrovských,49.2144459,16.736502
1049473295,node,Zbýšov,49.1326497,16.8067891
1052733016,node,Malá fontánka,49.1953331,16.6075198
1052733045,node,Brněnský orloj,49.1947998,16.6085914
1061929173,node,Hostěrádky-Rešov,49.1198721,16.7828063
1063772262,node,kostel sv. Jana Křtitele,49.1020612,16.7183032
1064041381,node,Pacherův kříž,49.2350245,16.7370846
1066139214,node,Andělka a Čertovka,49.1719338,16.72185
1067819864,node,sv. Alois,49.1688705,16.7254648
1067819943,node,Pomník osvobození Rudou armádou,49.1655877,16.7224813
1067889000,node,Plačící matka,49.1698346,16.724178
1068895154,node,"Brno,,Ústřední hřbitov",49.1707826,16.5975462
1073300978,node,Hrad Veveří (příkop),49.2557847,16.4606492
1078366049,node,Hradební stráň,49.2545137,16.4600788
1094624871,node,Olymp,49.2067778,16.6189388
1094978372,node,Dohoda beer house,49.1916221,16.6060235
1104844916,node,památník generála Valhuberta,49.1880363,16.766624
1105877583,node,Alej Františka Neužila,49.2142281,16.8043878
1106063895,node,Stará hora,49.1137897,16.769163
1106443645,node,svatá Trojice,49.2056777,16.6952416
1106662723,node,Pohostinství U Křápků,49.1835504,16.5634152
1119975710,node,Cafe Práh,49.1872587,16.6156085
1120399098,node,Rotreklova,49.2065622,16.6846972
1124715656,node,František Pospíšil (1919-1944),49.2033657,16.5954504
1124839060,node,"Dvorska, smyčka",49.1434416,16.7072841
1124839236,node,Vlčkova,49.1409521,16.7011299
1129820455,node,Podbělová,49.2140747,16.6814116
1133663947,node,FAKO CLUB,49.1471634,16.6654979
1135297396,node,opravna,49.1472401,16.6608686
1146217329,node,Restaurace Svatoboj,49.2153446,16.6380383
1147451951,node,Lebloch,49.212286,16.6304254
1149162570,node,Kandie,49.1872069,16.7057837
1156215028,node,Cukrárna Kolbaba,49.2004504,16.6032554
1189753500,node,Ponětovice,49.1522938,16.7421365
1189813016,node,Čtvrtě (rozc.),49.1251384,16.7750718
1193245431,node,Výletní restaurace Eldorádo,49.2064716,16.7180399
1193245476,node,Pilgrim,49.2067729,16.7191787
1202972372,node,Plzeňský dvůr,49.2109905,16.5948208
1203323205,node,Alterna,49.2101848,16.5945867
1203323211,node,Maxi Kebab,49.2105139,16.5934167
1207529772,node,Café Rudolf,49.2267329,16.5937932
1207586562,node,Brno 6,49.2102176,16.6007948
1211716120,node,Bitva u Slavkova,49.1691187,16.7272247
1212686151,node,"Ostopovice, smyčka",49.1642867,16.5409322
1216564614,node,Hornek (vyhlídka),49.2315454,16.717183
1216564675,node,Údolí Říčky,49.2331457,16.7245179
1218123869,node,Pod Horákovským hradem,49.2210681,16.7182521
1219767441,node,Studio 3T,49.2112337,16.620559
1219767488,node,Issima,49.2107684,16.6199446
1219767495,node,Vinotečka,49.2107993,16.6201273
1219767598,node,Půjčovna kostýmů,49.2111756,16.6214819
1219767612,node,Modré knihkupectví,49.2109201,16.6193896
1219767675,node,Tom Optik,49.2099807,16.6185914
1219767693,node,Coufal,49.2079165,16.6200867
1219767721,node,Klempířství Král,49.2109373,16.6194752
1219767746,node,Akademická vinotéka,49.2108174,16.6189745
1219767754,node,Fejtl Design,49.2100281,16.6185699
1219767803,node,Crocus,49.2103425,16.6188833
1219767834,node,Shoets,49.2004955,16.6141665
1221341124,node,Jezera,49.217137,16.7961033
1221556980,node,YVY restaurant,49.223751,16.5977143
1224182702,node,Moulin Rouge,49.2006758,16.6028289
1224482419,node,Velatická slepencová stráň,49.1936918,16.7562136
1225008851,node,Ústavní lékárna,49.1755464,16.5721223
1225703384,node,Cesta Čaje,49.1940274,16.6129999
1225901072,node,Hadivadlo,49.1945577,16.6100122
1230828769,node,Obecká,49.2141938,16.7012123
1230828783,node,Šimáčkova,49.2094384,16.6960403
1230829082,node,Modlitebna,49.2179677,16.5732882
1231061910,node,Markůvky,49.2240563,16.5060671
1231079017,node,K Žlíbkům,49.2146445,16.5044304
1231079054,node,Kamechy,49.2169563,16.4952641
1232845890,node,Strnadova,49.2057497,16.668988
1232852752,node,Pod Hády,49.2129369,16.6713563
1236464920,node,Faměrovo náměstí,49.1767923,16.6403767
1236464925,node,Jiránkova,49.1875718,16.6335071
1237080138,node,Pavlikova,49.1945652,16.5830369
1237152989,node,Kulečníkový klub Brio,49.2126983,16.6007951
1239124549,node,Sportbar Luna,49.1895175,16.6087171
1239210192,node,Olšanského,49.2441708,16.5772728
1239780214,node,Památník Rudé armády,49.2565832,16.5725187
1239780800,node,Černohorská,49.2587708,16.5714865
1240290974,node,Liščí palouček,49.2272086,16.7189317
1240393090,node,Rozhledna na Ostré horce,49.2480479,16.6220279
1240393096,node,Přatelství,49.2448414,16.6281983
1240393099,node,Obřanské hradisko,49.2341044,16.6593128
1240393100,node,Obřany a Maloměřice,49.2283262,16.6530199
1240393107,node,Soběšice - Dohnalova (MHD),49.2504164,16.6184284
1240393108,node,Na Štanýři,49.2269309,16.6472761
1240393111,node,Azalka,49.2018481,16.6701911
1241729235,node,U Fidela,49.2064724,16.6761095
1246881917,node,Kadlecův mlýn,49.2098473,16.7112768
1247165857,node,Urbanův kopec,49.1541905,16.5426182
1247374029,node,Tunel - propustek pod Hitlerovou dálnicí,49.1523211,16.5468126
1248472116,node,Jiříkovice,49.1669187,16.7580634
1248479672,node,Prace (bus),49.1390797,16.7649205
1248902664,node,Komín – u kamenolomu (MHD),49.2218938,16.5368651
1248919832,node,Hádek,49.2495699,16.7641111
1248946033,node,Pod Lhotkami,49.2667777,16.7898071
1249054939,node,Na Oklikách,49.0985229,16.3996465
1250403829,node,Lhotky (rozc.),49.2889664,16.7903438
1250403846,node,František Kaláb,49.2886557,16.7923389
1250403934,node,František Polák,49.2852111,16.7801253
1251596141,node,"Ochoz u Brna, Na Pastýřkách",49.2508765,16.7338179
1251596167,node,"Ochoz u Brna, restaurace U Votrubů",49.2564585,16.732367
1251596192,node,"Ochoz u Brna, ob. úřad",49.2543665,16.7365205
1252545628,node,Velká Klajdovka (háj.),49.2182236,16.6811528
1253767376,node,Sharingham,49.1861111,16.5954172
1256233915,node,Vodárenský objekt,49.2548531,16.5780059
1257139501,node,Hostěnice (bus),49.2390934,16.772053
1257139535,node,retenční nádrž Habrová studánka,49.2470206,16.8078295
1257139561,node,Habrová studánka,49.2458527,16.8069104
1257139592,node,studánka U aleje,49.2473183,16.8077313
1257139717,node,Vzpomínka padlým a zemřelým vojákům,49.2380517,16.7738741
1257139758,node,mokřádní louka u Jelenice,49.2397524,16.8024928
1257139776,node,u chaty Jelenice,49.2406465,16.8028483
1257182067,node,Bukovinka (bus),49.2927028,16.8056768
1257182072,node,Bukovinka,49.29292,16.8055758
1257842257,node,"Bukovinka, Pindula",49.2951838,16.7962639
1257842289,node,Retenční nádrž Říčky - horní,49.2815471,16.7874372
1258684054,node,Ochozská jeskyně,49.2444894,16.7499383
1258684111,node,Kaprálova studánka,49.2428931,16.7357179
1258684143,node,Hádecká propadání,49.2475218,16.7523145
1258684267,node,Gustav Lechner,49.2253138,16.6794298
1258684395,node,Zeno Kaprál,49.2434042,16.7330531
1270503062,node,Nad panskými loukami,49.2761539,16.650647
1270503308,node,Dlouhé Vrchy,49.2809311,16.6415545
1271862380,node,pomník padlým I. světová válka,49.2473401,16.6739874
1271862383,node,V Anenském údolí,49.2531219,16.6685714
1273464609,node,krasový závrt,49.281331,16.7184327
1273605245,node,Praskavice,49.2587519,16.6572032
1274669794,node,Červené vrchy,49.2535875,16.6384118
1274669883,node,U Luže,49.2582326,16.6507613
1274669916,node,Melatín (rozc.),49.2600259,16.6438582
1277058927,node,Modřice (most),49.1322439,16.627741
1277438764,node,Švédův stůl,49.2451183,16.7478525
1277438791,node,Netopýrka,49.2447713,16.7491125
1277438795,node,Rybník pod Hádkem,49.2492569,16.7620772
1277438811,node,Málčina (hlavní vchod),49.2457529,16.7475391
1277447170,node,Vývěr Říčky I,49.2429247,16.7384177
1278980725,node,Osada Mladová,49.255115,16.6751719
1279034565,node,Hlavní nádraží (U Grandu),49.1921935,16.6138567
1279278869,node,lesní cesta Šumbera,49.2286251,16.6720578
1279278873,node,NPR Hádecká planinka,49.2291157,16.6853798
1280207626,node,Chutné štěstí,49.2033314,16.6072165
1280391506,node,Srnčí-Kroupova studánka,49.230069,16.8038374
1280605107,node,Lékárna U Ronda,49.1861098,16.6037059
1283302809,node,Pod Časnýřem,49.2509812,16.6750952
1283302892,node,Na Mladových,49.2575883,16.6751654
1289178549,node,Heroldova pekárna,49.2103936,16.5875963
1289178553,node,Oděvy Katka,49.2104107,16.5874948
1290401632,node,Kabaret Špaček,49.191576,16.6038205
1291848275,node,U Tří doubků,49.129052,16.7256219
1296560625,node,Jelenka,49.2403899,16.8034598
1296560631,node,Pařezová studánka,49.2409003,16.8037319
1307051925,node,studánka Stanislava Lolka,49.2374315,16.6961825
1307051932,node,Josef Ressel,49.2378792,16.6988921
1307051947,node,Lesnický Slavín,49.2379406,16.6988032
1307051950,node,Rudolf Těsnohlídek,49.236592,16.6774641
1307129294,node,Resslův pomník (odbočka),49.2368371,16.6970586
1313025207,node,Vladimírov,49.107998,16.6838242
1313365663,node,Pod Obřanským hradiskem,49.2250463,16.6618554
1313365666,node,Maloměřický lom,49.2242485,16.662611
1316613614,node,Centrum buddhismu Diamantové cesty Brno,49.2256238,16.6125882
1319345829,node,Avanti,49.2127568,16.6047826
1323483185,node,Rebio,49.1940996,16.6126594
1334752801,node,vechtr,49.1660274,16.4386516
1342570206,node,Horka (rozc.),49.2808788,16.6084971
1348030649,node,Panský pivovar,49.1190497,16.7274486
1351588864,node,Bobrava,49.107105,16.6009171
1353945460,node,Studánky v okolí Pozořic,49.2297258,16.8034302
1354993521,node,Tančící dům,49.1921283,16.6206901
1355006231,node,Bartákova,49.2036864,16.6787847
1357168351,node,Protiletadlový kryt Denis,49.1901197,16.6080791
1357168352,node,Protiletadlový kryt pod Špilberkem,49.1938806,16.6044362
1357168353,node,Protiletadlový kryt pod Špilberkem 10-Z,49.1940101,16.6043954
1360432279,node,Eurest,49.1711776,16.5981799
1360432293,node,Eatology,49.1809481,16.6059264
1360945864,node,Sokec,49.1294204,16.6066023
1360946031,node,cyklobar,49.1307128,16.6242887
1363784431,node,Bistro u rozhledny,49.116723,16.4273517
1364784036,node,Hostěnické propadání (rozcestí),49.2409181,16.7567419
1364784041,node,Hostěnické propadání (odbočka),49.241365,16.7580701
1364843061,node,studánka Leoše Janáčka,49.2446668,16.6805725
1371469303,node,Hoa Mai,49.2061208,16.6025452
1372673511,node,Sokolské koupaliště,49.2441615,16.5069263
1374209382,node,Oldřich Mikulášek,49.2003818,16.6064318
1377282967,node,U pavouka,49.2043192,16.6927376
1377283171,node,Sběrné suroviny Procházka,49.2044611,16.6934243
1377284627,node,ZŠ Holzova,49.2018865,16.6947992
1377284628,node,Brněnka - potraviny Kolejka,49.2060258,16.6942856
1377284629,node,Líšeňská pekárna,49.20655,16.6975146
1377284644,node,SZŠ Evangelická,49.207559,16.6940819
1377284686,node,Pension U Libušky,49.2053233,16.6944355
1377284709,node,Restaurace Na hřišti,49.2024703,16.6948753
1377284711,node,Restaurace Na Chajdě,49.2032133,16.6942316
1377284983,node,Pivnice Na vyhlídce,49.2039985,16.6848444
1378610019,node,U Zastávky,49.1563277,16.6263535
1383465078,node,Hradisko Chochola,49.2414114,16.7211407
1385613648,node,Pivnice U Čápa,49.1996298,16.5980485
1386807260,node,Marie Pujmanové,49.1982612,16.573291
1389004551,node,Babí doly (rozc.),49.2903722,16.601794
1389171910,node,Kubánky,49.2856817,16.6081238
1389171912,node,Ranch CH,49.2824019,16.6099138
1389171913,node,U trávníka,49.2828284,16.6090555
1389171914,node,Vrchní hony,49.2807109,16.6056339
1389288019,node,U hamrů,49.2927872,16.6309852
1389679705,node,Restaurace u Klimešů,49.2209818,16.5351675
1389965275,node,Bohunicka rychta,49.1686758,16.577091
1390744628,node,Rio bar,49.2016975,16.5811222
1391851811,node,Hostinec U Švehlů,49.2086175,16.6954171
1391854484,node,Tesařova hospoda,49.2073447,16.6841756
1392651016,node,Obchodní akadmie ELDO,49.2123298,16.6050042
1392651020,node,SOU tradičních řemesel a VOŠ,49.2125907,16.6048483
1392651021,node,Vyšší odborná škola,49.212459,16.6049319
1394029091,node,hradisko Chochola,49.238261,16.7216926
1394738486,node,TBB Bike,49.1713214,16.6135048
1394738487,node,Zmrzlina,49.2051092,16.6031236
1394947958,node,Argila,49.1901176,16.5824562
1395312738,node,Tři grácie,49.1912755,16.7722661
1395444404,node,RHK Brno,49.188951,16.5835282
1399376340,node,Pivnice U Ričího,49.2025413,16.5961539
1399376347,node,Pavlíkova,49.1947426,16.5827976
1399376350,node,Pekařství Balabán,49.1990097,16.5933197
1399376352,node,Pizza u Doktora,49.1995001,16.5931374
1399376355,node,U Zlaté konve,49.1985198,16.5942454
1403772815,node,Základní škola a mateřská škola Březina,49.2821561,16.750679
1404091867,node,Satyam,49.1869067,16.5866465
1404091870,node,U Kajmana,49.1868292,16.5864652
1405869497,node,Restaurace DEVON,49.2821603,16.7539573
1408770408,node,Mariánské údolí,49.2033173,16.7158656
1411240304,node,Pharmawell,49.1909736,16.578618
1411240708,node,Českomoravská záruční a rozvojová banka,49.1908145,16.579045
1412504699,node,Domov pro osoby se zdravotním postižením Nojmánek,49.1938895,16.5808467
1412971658,node,Horákov (bus),49.2156445,16.7497083
1412971659,node,Horákovská myslivna,49.2141749,16.7353712
1412971660,node,"Mokrá-Horákov, Horákov",49.2155903,16.7498126
1418101194,node,Lucky Bastard Beerhouse,49.1988843,16.59116
1418101198,node,Whiskey Bar který neexistuje,49.1991951,16.5915696
1418520283,node,Trafika u Anežky,49.1941755,16.6409164
1420244901,node,Vinná galerie,49.2045351,16.6108359
1421397293,node,Top Drogerie,49.2012664,16.5991702
1421397294,node,PivoLi,49.2040207,16.5957164
1435519968,node,Cukrárna mlsná,49.1463829,16.6656462
1435519969,node,Ludvík Krejčí (1890-1972),49.1466461,16.6658895
1436442869,node,MVDr. Jindřich Nešpor,49.1702881,16.5705849
1443331903,node,Klada,49.2847837,16.4018254
1443331911,node,Kláda,49.2875252,16.4023188
1443331915,node,Kosová,49.2840189,16.3980326
1443331917,node,Nad bořím,49.2838267,16.399929
1443331946,node,Spodní trať,49.2836476,16.4103674
1443331951,node,Za žlíbkem,49.2874667,16.3963027
1443331956,node,Zmola,49.2806028,16.404411
1445229165,node,"Benzina - Brno, Bystrcká",49.2231596,16.5372722
1445736612,node,Krchůvek (odb.),49.1417135,16.8086061
1448493679,node,Brno 7,49.1387997,16.6341335
1451036245,node,Helenka,49.2240109,16.4330317
1458615945,node,U Zlatého Meče,49.1932765,16.6078036
1459585471,node,Za Brabínkou,49.2799213,16.4564109
1460987628,node,Integrity,49.1912726,16.5778746
1461015270,node,AMI penzion,49.1974495,16.5686928
1466747474,node,Spielberg Office Centre,49.1808941,16.6053814
1468826886,node,Acstar - mm,49.2046607,16.5856452
1468826887,node,obouvame.online,49.2007732,16.640392
1468826889,node,Cyklosport,49.1531043,16.6521023
1468826891,node,Cyklo Point,49.1776071,16.5668364
1468826892,node,Cyklosport Pavka,49.192323,16.6407219
1468826894,node,Motokola Bodeček,49.2021245,16.6772189
1468826895,node,PELL'S,49.2216827,16.6485519
1468826896,node,PEPE bike,49.1942143,16.6352454
1468826897,node,Xzone,49.2212807,16.5965246
1470018901,node,HULMAN - kovošrot,49.1314873,16.673477
1472171127,node,Zamilovaný hájek,49.2403749,16.6023333
1472322992,node,studánka V Napajedlách,49.245115,16.7765292
1473346299,node,Vlastimil Nezval,49.2494353,16.7955921
1473369154,node,Barvič a Novotný,49.1960795,16.6061075
1473369158,node,Knihy Dobrovský,49.1977827,16.6053825
1473369173,node,Zdravotnické pomůcky,49.189451,16.6022307
1473369183,node,Nemocnice U sv. Anny,49.1912892,16.5993613
1473369184,node,Nelso,49.1916435,16.5997056
1473369187,node,Kadeřnictví Zástřešková,49.1916505,16.5998178
1473369189,node,Duhový svět,49.1918285,16.6012144
1473369192,node,Botanico,49.1920062,16.6009807
1473369195,node,Optika Taťána Vrtěnová,49.1920605,16.6012636
1473369197,node,Papírnictví Respe,49.192093,16.6014072
1473369199,node,Velký Špalíček,49.1931946,16.6073696
1473424156,node,Karlova pekárna,49.2276113,16.592825
1473424158,node,Podpěrova pekárna,49.2279937,16.5927677
1474586478,node,V Kaničkách,49.2561366,16.7125906
1474619251,node,Louky pod školou,49.2550083,16.6898956
1474619252,node,Na Vinohrádkách,49.2626669,16.6973824
1474619254,node,Ve Žlíbkách,49.2612431,16.6949552
1475353443,node,Nad Časnýřem,49.2536921,16.677407
1475353447,node,Palackého údolí,49.2454647,16.6765169
1478299376,node,Ekostezka Lesná č. 1: Historie,49.2264361,16.6223578
1478299381,node,NS Ekostezka Lesná č. 2: Neživá příroda,49.2265849,16.6192875
1478299396,node,Ekostezka Lesná č. 3: Poděkování stromům,49.228007,16.617746
1478299398,node,Ekostezka Lesná č. 4: Exotické dřeviny,49.227945,16.6207106
1478299399,node,Ekostezka Lesná č. 5: Eroze,49.22948,16.624794
1478299403,node,Ekostezka Lesná č. 7: Ptáci - život mezi nebem a zemí,49.229999,16.627156
1478299409,node,Ekostezka Lesná č. 9: Barevný svět rostlin,49.228059,16.6282993
1478299415,node,Ekostezka Lesná č. 10: Voda pro Brno,49.225996,16.630294
1478299429,node,Ekostezka Lesná č. 11: Chráněná příroda města Brna,49.225771,16.624356
1478299681,node,Ekostezka Lesná č. 6: Les na Lesné,49.229057,16.625096
1478808605,node,Velký medlánecký kopec,49.2343965,16.5678923
1480478935,node,Reissigova,49.2157378,16.6047515
1481595433,node,Pivo & Syn,49.2002031,16.6014312
1483497986,node,Sklenarstvi,49.2025564,16.6880623
1483497990,node,Modni zbozi,49.2034186,16.6943011
1483497993,node,Líšeňský Dělňák,49.209226,16.6935232
1483497996,node,Campanula,49.2033415,16.6926167
1483497999,node,ROCar Radim Ondracek,49.2021848,16.6918766
1485213625,node,Přírodní památka Pekárna,49.2109738,16.5044305
1485730903,node,"Zetor, smyčka",49.1996194,16.6702623
1486367772,node,Kofi Kofi,49.1975991,16.6049926
1488890358,node,Soukopova,49.1989878,16.5790503
1490168470,node,Cafe Podnebi,49.1958978,16.6019912
1491762426,node,Bon Bon,49.2021735,16.580155
1491762430,node,Lékárna U sv. Augustina,49.2019355,16.5801905
1491762443,node,Karel Čapek,49.1981891,16.6016793
1491762591,node,Slavona,49.2020746,16.5802504
1494506565,node,Ventana Café,49.2264508,16.5958549
1494789735,node,HiFi studio,49.1972859,16.5998168
1494789737,node,Diamond Body,49.1973393,16.5997006
1494789738,node,Zlatá miska,49.1971831,16.6012107
1494789749,node,Sanasport,49.1974325,16.5995191
1494789750,node,Šperky Pavlík,49.1971166,16.6006628
1505110743,node,Igi elektrokola,49.155402,16.5987103
1510315952,node,Líšeň - Mariánské úd. (rozc.),49.2068515,16.718675
1510315965,node,Podolí (rozc.),49.192831,16.7303038
1510315966,node,Samostřípka,49.2143407,16.7303283
1510315969,node,smírčí kámen,49.1989162,16.726044
1512894587,node,Kasha,49.1972537,16.6046916
1513540545,node,Drink Line,49.2003832,16.6106989
1514005340,node,PHO 43,49.2029452,16.6110243
1514157941,node,Konzervatoř Brno,49.2045202,16.6101278
1514165932,node,Základní škola náměstí 28. října,49.2023779,16.6138763
1514173827,node,ZUŠ Jaroslava Kvapila,49.203471,16.610953
1514396131,node,Café Laundry,49.2039394,16.607
1514441113,node,India Thali,49.2014417,16.6105621
1514494178,node,Traubka,49.202132,16.6152336
1514495217,node,Jazz Klub Triumf,49.2032957,16.6074619
1514495833,node,Gopal,49.2012751,16.6112275
1514496114,node,U Starýho Billa,49.2018649,16.6120342
1514496647,node,U Žíznivé opice,49.2042681,16.6235307
1517721236,node,1. Doubravnická,49.2000802,16.6107206
1518591156,node,Barvičova,49.2010358,16.5757436
1526309770,node,Ocean48,49.2120895,16.5791437
1526309784,node,Pod zadními,49.2353371,16.5703596
1526309789,node,Restaurace Za Kapličkou,49.2119821,16.5784675
1526309893,node,Férhair,49.2017125,16.5796869
1526310016,node,sběrný dvůr,49.2119517,16.5791274
1528351523,node,Glamour,49.1972562,16.599883
1528351526,node,Heller Dance and fashion,49.1975531,16.5992805
1528351529,node,Hatsu,49.1977237,16.5988066
1528351532,node,The Roses,49.2248772,16.5831196
1528351534,node,Památník prvního stálého českého divadla v Brně,49.1988009,16.6031619
1528351535,node,Pamětní deska Františka Mareše,49.1973839,16.6000911
1528351536,node,Bakery Sweet Caffe,49.1980494,16.6052551
1528351538,node,Pod lékárnou,49.2000489,16.6017541
1528351539,node,Pod Špilberkem,49.1971229,16.6001481
1528351542,node,Grand Restaurant Zelená kočka,49.2118391,16.5925968
1528351545,node,Fryends Cafe,49.1971969,16.6051919
1528351547,node,Fryends,49.1972704,16.6051337
1528351552,node,Lékárna na Údolní,49.1975562,16.5998079
1528351598,node,Korálkárna,49.1993731,16.6022208
1531570863,node,Elplova,49.2104202,16.6748251
1531570900,node,Růženin dvůr,49.2032915,16.6664461
1534975895,node,MPM modely,49.2122813,16.592358
1537175068,node,Sparkys,49.1932861,16.6098373
1537175115,node,The Foodhouse,49.193702,16.6089006
1537175145,node,hračky,49.1966682,16.6063218
1537570975,node,Muse Boutique,49.1921365,16.603264
1538572968,node,Dlouhý,49.1022965,16.6050172
1538572971,node,U trávníku,49.1017698,16.6069488
1546455444,node,Top Tabák,49.2217207,16.5849704
1546455447,node,Daniel's Donuts,49.2251097,16.582995
1546455449,node,Roj kebab,49.2252449,16.5829942
1548084597,node,Pusinka,49.2274003,16.5925045
1548084617,node,Svoj&Svoj,49.2235678,16.5947165
1548084625,node,Tabák Valmont,49.2236274,16.5946912
1548084663,node,Steinex,49.223814,16.5944482
1548084767,node,grilovaná kuřata,49.2280299,16.592497
1550504619,node,Brána 2,49.2250733,16.573657
1553124549,node,U Hovězáků,49.2044256,16.593621
1557188435,node,Pivnice U Poutníka,49.1927801,16.606625
1559078042,node,Chaloupka u komina,49.2485597,16.6677002
1559086938,node,ZŠ Bílovice nad Svitavou,49.2448257,16.6734545
1559088998,node,Lékárna Bílovice,49.2452576,16.673426
1565872627,node,První vánoční strom republiky,49.2414074,16.6902275
1567707637,node,klíčová služba,49.176183,16.5971671
1567707677,node,opravna obuvi,49.1761804,16.597132
1567707680,node,Bankomat KB,49.1762157,16.5969835
1571489769,node,Spodní prašnice,49.2124674,16.5522353
1577468284,node,Bařiny,49.2201979,16.573793
1577468285,node,Lékárna Eva,49.2172322,16.5722142
1578340082,node,"Obětem první světové války, fašistického násilí a komunistické totality",49.2122745,16.5784849
1578340144,node,Čistírna Peří,49.2126703,16.5781862
1580217333,node,Obuv Gryc,49.1982004,16.6053628
1580217344,node,Blue Demon Bistro,49.1979665,16.5973695
1584189987,node,Galerie Antonína Procházky,49.1911044,16.5781869
1584189989,node,Pískoviště,49.1960012,16.5766799
1584189990,node,Ráj Hlinky,49.1907499,16.5793101
1584774068,node,BS Kellys,49.1893761,16.5999112
1584774069,node,BS Kelly,49.1981385,16.6462402
1584774070,node,Cyklo Lasl,49.2238293,16.5227066
1584774071,node,BB cyklosport,49.2855367,16.563788
1584774072,node,GS Sport,49.1984978,16.5463833
1584774073,node,Leoš Kundera,49.1456699,16.6665057
1584774074,node,Půjčovna průmyslového zboží,49.2014975,16.6361222
1587863082,node,Spáčilova,49.1886139,16.6410984
1591345881,node,Alkohol Medvěd,49.1983433,16.591803
1591345884,node,Hostinec U Bláhovky,49.1991915,16.5922454
1591631869,node,Vstupní panel,49.2411308,16.5727933
1591631880,node,Historie Medlánek,49.2411488,16.5727916
1591631977,node,Lesní správa Brno,49.2498529,16.5634387
1591631992,node,Rozcestí u obrázku,49.2478713,16.5566392
1592867513,node,Přírodní památka Medlánecké kopce,49.233342,16.5671925
1593629306,node,Medlánecké kopce (sedlo),49.2375053,16.5674436
1593629423,node,Brno - Medlánky (MHD),49.240665,16.573247
1593630057,node,Mokřad pod Hrázkou,49.2379665,16.5826521
1593630143,node,"Sýpka, Panský dvůr",49.2417582,16.5738486
1593630150,node,Zvonice na ulici Kytnerova,49.2424506,16.5752512
1593694829,node,"Kobylnice, Obecní úřad",49.1375685,16.7328694
1593742913,node,Mateřská škola Kobylnice,49.1375763,16.733901
1596072888,node,Restaurace Krakonoš,49.2257433,16.6020086
1596072893,node,U 3 opic,49.2257558,16.5932732
1596719211,node,DH REPROS,49.2265844,16.5933844
1596719213,node,Lékárna U Svaté Trojice,49.2224718,16.5953449
1596719214,node,Styria,49.222379,16.5958916
1596872895,node,Houslařství,49.2109462,16.5759979
1596872897,node,MontSat,49.2144857,16.5781379
1596873048,node,MUDr. Dagmar Páčová,49.2130923,16.577179
1597488201,node,Kopačka,49.2168502,16.4020626
1597529429,node,DMH a Kloupar,49.2239371,16.5955485
1597529430,node,Moravská Vinotéka,49.2271622,16.5903715
1597529431,node,U Hřebíčků,49.2272304,16.5905924
1597529432,node,U Žouželky,49.2239107,16.5950361
1597529434,node,Květiny Floris,49.227114,16.5926822
1599473562,node,Autodílna Horák,49.2126844,16.5773676
1599473566,node,Horská,49.221553,16.5791978
1599473572,node,Emotion Bikes,49.212668,16.5774219
1600624317,node,Pivovarská Brno,49.1908317,16.5927466
1601566701,node,Brno-město,49.191596,16.6111292
1601605312,node,Potraviny Včela,49.2941624,16.805617
1601616543,node,Želešice,49.1168862,16.5813739
1601616606,node,Řícmanice,49.2574642,16.6939395
1601616724,node,Velatice,49.1973731,16.7535786
1601616988,node,Prace,49.1413037,16.7652026
1601617225,node,Moravské Knínice,49.2935307,16.5012242
1601617535,node,Chudčice,49.2884909,16.4587237
1601724037,node,Šaratice,49.1174637,16.8035069
1602227657,node,Lékárna Adonis,49.224357,16.5947347
1602227660,node,Charlie's Mill Restaurant,49.2266073,16.5924741
1602227703,node,Dary přírody,49.2239714,16.595687
1602227781,node,MJC Zlín,49.2260681,16.5937209
1602227891,node,Tabák U Zdenála,49.2282479,16.5918605
1602227896,node,kadeřnictví,49.2282446,16.5928318
1602227938,node,Portoriko,49.229281,16.5856804
1602227973,node,BRNOCAR,49.2339366,16.5872706
1603482838,node,Platan na Kociánce,49.2253145,16.6036666
1603482839,node,Spirála integrace,49.2255398,16.6063688
1603483050,node,Pomník osvobození,49.2257651,16.6056254
1603483099,node,Jan Chlup,49.2259952,16.6048481
1604174210,node,Club Mojmírák,49.2245267,16.5974839
1604174367,node,TRAFIKA,49.2312023,16.589868
1604174381,node,Cut-Cat,49.2314853,16.5889999
1604214962,node,Atoma,49.2253401,16.6016213
1606627073,node,Lihovarský sklep,49.216124,16.3943165
1606901423,node,Pivnice na Božence,49.2290685,16.5892177
1607830822,node,Květiny Gelnarová,49.2225706,16.5952847
1607830823,node,Hodiny-klenoty,49.2226179,16.5952659
1607830836,node,České zlatnictví,49.2243045,16.5947699
1607830837,node,Kadeřnictví Helena,49.2288983,16.5883801
1608100644,node,AGROTEC,49.1841909,16.6617361
1608100645,node,Nářadí Veselý,49.1854683,16.6553685
1608100741,node,Benzina - Brno Zvonařka,49.1878767,16.6228929
1608422305,node,Nakanapi,49.2106922,16.6003957
1608422306,node,Rybenka,49.2107177,16.6006636
1609440702,node,Malé Bosny,49.2469785,16.5597836
1609440707,node,U Berkla,49.2487123,16.5629804
1609440708,node,Velké Bosny,49.2485535,16.5597918
1610992019,node,U Chlapečka,49.2210103,16.7329675
1611617037,node,Herčíkova,49.2302551,16.5854949
1611667129,node,Maruška Kudeříková,49.2018529,16.6096889
1611767989,node,Nepal,49.2244409,16.5902086
1611767993,node,Roj Kebab,49.2213892,16.5855453
1611767996,node,Allianz Purkyňova Brno,49.222071,16.5850766
1612063561,node,Chilli Tree,49.2209179,16.5844221
1612068485,node,Potraviny Emma,49.2242114,16.5947958
1612121994,node,Kadeřnictví IVA,49.202308,16.6405977
1612121998,node,Strašil,49.2022949,16.6401884
1612122001,node,Svitavská Rychta,49.202022,16.6406349
1612122003,node,Tabák Albert,49.2024954,16.6401885
1612122004,node,Zoomarket,49.2025502,16.6401959
1612122007,node,Květinky Brno,49.2021789,16.6405838
1612122011,node,Nelix,49.2022371,16.6415107
1612493945,node,Café Mezzanine,49.1968122,16.6007375
1612493950,node,Galerie Aspekt,49.1967119,16.6009094
1613157097,node,U dvou lišek,49.1471093,16.5788213
1614246030,node,Copy Centrum,49.2046864,16.5927377
1614264177,node,Zona 59,49.2061533,16.596465
1614452281,node,Spanilý les,49.2627212,16.6128305
1614452282,node,U Kádě,49.2604434,16.6168204
1614634884,node,Sony Centrum,49.2030694,16.6005488
1614635073,node,Goldenhair,49.2033051,16.599745
1614708345,node,Arrakis,49.2001523,16.6015121
1614708354,node,Best Kebap,49.2011002,16.6001037
1614708366,node,Melodka,49.2030321,16.6007356
1614708383,node,Moravské Gymnasium,49.200555,16.6009718
1614708393,node,Pivní Stáj,49.2011526,16.5999852
1614708413,node,Strnad hodinářství,49.2010408,16.6002086
1614708449,node,GPS Centrum,49.2006523,16.6007187
1614708473,node,SIWA Orient Grill,49.2009474,16.6003261
1616712605,node,Strima,49.1472514,16.665637
1620557623,node,Spirit,49.228492,16.5945909
1626527714,node,Menza Purkyňova,49.2244619,16.5825917
1631371485,node,Restaurace Radegast,49.2161809,16.5048465
1633662278,node,Club Cohiba,49.200603,16.6043615
1633689369,node,Under Armour,49.1915112,16.6038633
1634178086,node,Postřižiny,49.2011729,16.6051882
1636268883,node,Kolárna,49.2021359,16.620364
1636268886,node,Statyr bar,49.2019215,16.6194881
1636372909,node,Kafe Skácel,49.221701,16.5854084
1636372916,node,Potraviny-Večerka,49.2233273,16.5900369
1636372932,node,Veterinární ordinace Marek Chyba,49.223571,16.5908416
1638975170,node,Centrum Kociánka,49.2256057,16.6037524
1644291305,node,Aurum caffe restaurant,49.2272389,16.593478
1647884109,node,U Emila,49.1890251,16.6063912
1650832094,node,Kulhánek & Drápal,49.2030071,16.6067076
1650856610,node,Lékárna Na Lidické,49.2036481,16.6070975
1650856638,node,Léčivé rostliny,49.2257875,16.5938864
1650856646,node,Klíče - zámky - trezory,49.2260631,16.5939036
1652118356,node,Dělová koule,49.1959305,16.5958347
1652118374,node,Dřevěný hrad Špilberk,49.1961271,16.5958286
1652118385,node,U Zlaté hrušky,49.1969168,16.593684
1653494109,node,Penzion Edison,49.2284949,16.5757633
1655802065,node,Rubín,49.2184397,16.5767555
1658112544,node,Dlouhé Vrchy (rozcestí),49.289993,16.6392663
1658112578,node,Mufloní Studánka,49.2835694,16.65392
1658781755,node,Obětem válek,49.1110789,16.5534147
1662767969,node,Ronov (zřícenina),49.2804687,16.6666983
1663522898,node,Penzion Brno,49.1988612,16.5726882
1663522903,node,Pomník Miroslava Tyrše,49.2059184,16.5751415
1666942798,node,D-Café,49.2015875,16.6077121
1668308884,node,Soběšická mulda,49.2462379,16.6186868
1668965626,node,Zadní šmelc,49.2447405,16.6073107
1674480169,node,Fors CS,49.2432116,16.6615574
1674810742,node,Písky (rozc.),49.2656809,16.6244084
1676025527,node,Buková zmola,49.2761756,16.6378996
1676025591,node,"Ronov (zřícenina, odbočka)",49.2805086,16.6658381
1676764368,node,TIC Jižní morava,49.1934649,16.6084592
1676776005,node,Esencia,49.2316314,16.5889109
1676776014,node,Mahenův Památník,49.1962724,16.586839
1676776017,node,Restaurace Racek,49.2207383,16.5957703
1677978618,node,Loosova - Kaplického blob,49.2316487,16.6188534
1681680380,node,Dvůr v lese,49.125619,16.633516
1681680388,node,"Modřice, Drůbežářské závody",49.1333797,16.6306344
1681680391,node,"Modřice, Olympia Jih",49.1351196,16.6339156
1681680393,node,"Modřice, Olympia",49.1392848,16.6343391
1683200359,node,"Komárov, Mariánské náměstí",49.177021,16.6219709
1683641551,node,Lékárna u Elišky,49.2231056,16.5870863
1684051167,node,Rozvodna VN+NN Lužická,49.2060138,16.5841812
1684504869,node,NetSuite,49.1885593,16.613233
1684569569,node,1-01-11 Benešova,49.1950458,16.6149855
1684701574,node,Městská policie Brno,49.2121207,16.6014549
1686161241,node,Údolí Zaječího potoka,49.2357287,16.6060785
1686206709,node,"Kníničky, U Luhu",49.2393245,16.5300908
1686206713,node,"Rozdrojovice, rozcestí k přehradě",49.2502124,16.5158295
1686206715,node,U památníku,49.2360216,16.5278619
1686206721,node,"Rozdrojovice, rekreační středisko",49.2481534,16.5191018
1686206729,node,"Rozdrojovice, Na dědině",49.2550884,16.5107257
1686206732,node,Pod Mniší horou,49.2268376,16.5346975
1687694772,node,Bučinská pastviska,49.1511247,16.4620758
1687694781,node,Lamfetky,49.1392655,16.4718722
1687694785,node,Mezi mlýny,49.1332894,16.5231645
1687694798,node,U Šafránkova mlýna,49.1349572,16.5209429
1690471550,node,Santon,49.1883866,16.7637077
1690471612,node,PP Santon,49.1892298,16.766078
1691045013,node,Nejlevnější obleky,49.2206191,16.5969029
1691045018,node,P.A.W.,49.1943021,16.5823133
1691045021,node,Trafomot,49.218881,16.5995956
1691045105,node,Jan Anschlag,49.2207452,16.5968278
1691045120,node,Čalounictví Karel Kühr,49.2187108,16.5991381
1692278838,node,Čertík (pramen),49.1834718,16.5677139
1699926228,node,Myslivost,49.1885794,16.5665974
1705160889,node,Dvorek pod Petrovem,49.1914527,16.6074243
1709585807,node,Vondrákova,49.2213137,16.5284901
1709791008,node,La Corrida,49.2260198,16.5304245
1709805075,node,Ečerova,49.2180698,16.5096698
1709805082,node,Veterina Bystrc,49.2216787,16.5180705
1710080446,node,V Újezdech,49.2418668,16.5732395
1710293407,node,Fitness ProGym,49.2033193,16.600614
1710887636,node,Čápkova,49.2029949,16.5927758
1711984401,node,CK Eko Brno,49.1942823,16.6068925
1713967399,node,Paradox,49.1879683,16.5939567
1713972732,node,Okolo,49.1928085,16.6329356
1714448330,node,Hostěrádky-Rešov (bus),49.1173651,16.7851466
1714448334,node,"Hostěrádky-Rešov (žst, odb.)",49.118877,16.7819289
1716478391,node,České potraviny,49.2197221,16.5969348
1717440451,node,Svejk restaurant & penzion,49.169082,16.5789432
1717458086,node,Okruh Pub,49.1804437,16.5624013
1719270770,node,Žebětínský dvůr,49.2075578,16.48756
1719280322,node,U Ňuchňáka,49.2373819,16.5055025
1719280341,node,Zahrádka na Kozí Horce,49.234458,16.5062897
1722626519,node,Sobešické stráně,49.2562823,16.6294049
1723145469,node,Sborovna,49.2035731,16.6032637
1723862115,node,Robert Musil,49.1984571,16.6012731
1723867479,node,Pamětní deska Viléma Petrželky,49.2065643,16.595878
1723877119,node,Památník koncentračního tábora Pod Kaštany,49.2121256,16.5932875
1724138092,node,Café Gaviota,49.2084947,16.5942695
1724161292,node,JUDr. Václav hrabě Kounic,49.1985352,16.6058136
1724339181,node,Zemanova kavárna,49.1932116,16.6117692
1725012440,node,Grilovaná kuřata,49.2265058,16.5318438
1725958874,node,Pomalý bar,49.1974011,16.5941691
1725973748,node,Líšeňský pivovar,49.210744,16.6803864
1728573414,node,Dům Josefa Korbela,49.1902495,16.6188421
1730404053,node,Electroworld,49.1544447,16.6292356
1733047552,node,Horákovský hrad (rozcestí),49.2189004,16.7187524
1733047556,node,Horákovský hrad,49.2195311,16.7161824
1733047565,node,hrad Horákov,49.2197059,16.716004
1733047567,node,Mokerská myslivna,49.230779,16.7408614
1734115113,node,"Pozořice (nám., bus)",49.2096673,16.7902174
1734115114,node,Pozořice - Jezera,49.2212678,16.7968264
1734286769,node,svetelektrokol.cz,49.2323725,16.5899601
1736354250,node,Hospůdka u Jaróša,49.2217376,16.5855378
1736750610,node,Samovar,49.2001797,16.6089535
1740120631,node,Bikeplac,49.1839812,16.6196142
1744564206,node,Lékárna U Zlaté husy,49.2302684,16.5932528
1744564210,node,Poliklinika Božetěchova,49.2302333,16.5931463
1744564213,node,Prometheus,49.2338726,16.5835466
1745599717,node,Přírodní amfiteátr v Šelši,49.152807,16.5462016
1745890718,node,"Omice, Kývalka",49.1899449,16.451502
1745891339,node,Ústí Bobravy,49.1088729,16.6273054
1745928870,node,Osada (host.),49.2464619,16.5051389
1745928874,node,Veverská Bítýška (přístaviště),49.2757363,16.455286
1745928876,node,Brněnská přehrada (hráz),49.231877,16.5190807
1745928885,node,Veverská Bitýška (náměstí),49.2759514,16.4366985
1750324864,node,Krmítko FF,49.1995129,16.5999319
1750913652,node,HB strž Kovalovice,49.2165548,16.8089559
1751722012,node,Rudolf Gola,49.2141063,16.5347317
1751762819,node,U zabitého,49.2027199,16.5369041
1753750394,node,Masná,49.1912013,16.6265799
1753948207,node,Skrejš,49.2625078,16.5957239
1757215460,node,Žilkova,49.2530162,16.5755133
1757222445,node,Příjezdová,49.2615315,16.5698756
1757222447,node,Mácova,49.265728,16.5689643
1757228661,node,"Řečkovice, nádraží",49.2509012,16.5898368
1757228667,node,Kronova,49.2512212,16.5882169
1757254768,node,"Česká, Hlavní",49.2818066,16.565084
1757254769,node,"Česká, křižovatka",49.2829101,16.5652581
1757266490,node,"Lelekovice, škola",49.2903316,16.5762231
1757266492,node,"Lelekovice, u kříže",49.2901952,16.5873563
1757266493,node,"Česká, železniční stanice",49.2843434,16.5684787
1757416139,node,"Česká, UP závody",49.2892484,16.560906
1757439418,node,"Jinačovice, Chaloupky",49.264654,16.5272478
1757439442,node,"Kuřim, golfové hřiště",49.2788105,16.5259831
1758197960,node,Jandáskova,49.2558344,16.5898924
1760831597,node,"Rozdrojovice, Obecnice",49.252899,16.5124612
1765715447,node,Tungsram,49.191529,16.6093935
1767759794,node,Žebětín - Ríšova (MHD),49.2068628,16.4809166
1770355505,node,Fakultni lekarna,49.2182794,16.5961264
1771771738,node,Šupelák,49.2825057,16.6048768
1772442121,node,GES Electronics,49.1916773,16.6203283
1773152788,node,Úřad městyse Ostravačice,49.2114188,16.4081981
1773152789,node,Památník Pohádky máje,49.2113368,16.4084063
1773152792,node,U Nedbálků,49.2092163,16.4127081
1773153847,node,Bongo,49.1658354,16.6012188
1773160403,node,Hasičský dům,49.2143117,16.3944881
1773160412,node,Lékárna Panský dům,49.2157732,16.3938254
1773160414,node,Květiny Rudolf Hrbek,49.2152409,16.3937793
1773160418,node,Hotel Restaurant Na Návsi,49.2144873,16.3945926
1773160420,node,Uzenářství Aleš Divácký,49.2142181,16.3940717
1773162582,node,Hotel Hasičský dům,49.2143427,16.3945771
1773972239,node,T.S. Bohemia,49.2101371,16.5897422
1775533791,node,Obecní knihovna Ostrovačice,49.2101675,16.4121789
1776924869,node,KLAFE,49.2008573,16.5830135
1776930005,node,Caffé del Saggio,49.1987376,16.5866299
1780109863,node,Hospoda Womická,49.1701059,16.451504
1780109864,node,Obecní úřad Omice,49.1684956,16.4499191
1780109866,node,"Omice,,Samoobsluha",49.169918,16.4514249
1780109868,node,"Omice,,Sokolovna",49.1719701,16.454921
1780109872,node,"Troubsko,,Lísek",49.172126,16.4789952
1781743209,node,Občerstvení U přejezdu,49.1634101,16.4448373
1790671569,node,Balbínův pramen,49.1583652,16.6422674
1793383934,node,Kořískova,49.2387481,16.5862858
1795309572,node,rodina Laufer,49.2005746,16.6239903
1795426174,node,Masarykův onkologický ústav - Ústavní lékárna,49.1944172,16.5874343
1800486974,node,RoBiN OIL Brno - Slatina,49.1682312,16.6883913
1809222680,node,Indická restaurace GOA,49.1942448,16.6352746
1812240297,node,Petr Bajer,49.1814789,16.7213916
1814668649,node,Vorwerk CS k.s.,49.1694699,16.6132857
1816079821,node,Spálený mlýn u Střelic,49.1309251,16.5079751
1816079826,node,Želešice (BUS),49.116881,16.5776157
1824584074,node,Kytary.cz,49.2026275,16.6085737
1825265556,node,"Ořechov, Kerendov",49.1176951,16.5259402
1825393278,node,Grygovičky,49.2543971,16.50392
1825393290,node,Restaurace Marie,49.2469112,16.5045711
1825393293,node,U Šuláka,49.2464979,16.506107
1825994737,node,Atlantis,49.247267,16.5186172
1825994738,node,Fontána,49.2461513,16.513936
1825994739,node,Maximus Resort - Restaurace Portum,49.2434077,16.5155946
1829766687,node,U rybníčka,49.1155509,16.5212947
1835649099,node,Pivovarská restaurace Moravia,49.2419827,16.574072
1835649104,node,U křivé vrtule,49.2413382,16.5595773
1835649107,node,Smaltovna,49.2403576,16.5737823
1837290040,node,Podveská,49.2176241,16.5589826
1845869041,node,Agnes,49.2508673,16.5819767
1846035209,node,Sportareal druzstevni,49.2465994,16.5767982
1873600391,node,Šátské,49.2141539,16.4706067
1873600422,node,Ostrovačice (bus),49.2104802,16.4100364
1885907835,node,Motorola,49.2294746,16.578428
1887125254,node,Konůpkova louka,49.2675929,16.6953636
1887125261,node,Zlámaný kříž,49.2662698,16.6915569
1890166611,node,"Lužánky – středisko volného času, pracoviště Liška",49.2465947,16.6723871
1890517307,node,hotel u kostela,49.1284163,16.61289
1890519686,node,Gregor,49.1273076,16.6147938
1890520579,node,Commscope Czech Republic,49.1166463,16.6018912
1890520584,node,Inventec,49.1154,16.6018313
1890520643,node,CommScope Czech Republic,49.1165042,16.6035575
1890520768,node,Městská policie Modřice,49.1278713,16.61514
1895263903,node,U Mocnáře,49.2178958,16.5548631
1895791088,node,Big Food Point,49.1953952,16.6112202
1904250460,node,Janeko s.r.o,49.204279,16.5876694
1917666795,node,BS Bike,49.2111124,16.5843794
1918258967,node,Brno 39,49.1791848,16.5980177
1920316145,node,GIMMI lounge café,49.2230381,16.5926418
1921673456,node,Autoelegance Brno,49.2513463,16.5872366
1921673457,node,DMOTO,49.2341032,16.5873042
1925175856,node,Brutus,49.2215458,16.5963825
1925175860,node,Cukrárna Anička,49.234672,16.5278833
1925175890,node,Kníničská pivnice,49.2354048,16.5280145
1930468158,node,věž Staré radnice,49.1931133,16.6086733
1947190340,node,FN Bohunice - popáleninové centrum,49.1763125,16.5721756
1947196325,node,Brno - Grand Prix,49.2032568,16.4492195
1947625398,node,Kryštof 04 - Brno,49.1498551,16.6812921
1947644235,node,Brno - Tuřany - Základna PČR LS,49.1542618,16.6886638
1963143135,node,Studánka u Potomských,49.2719537,16.6095474
1969859795,node,potraviny / vecerka,49.2034826,16.6436059
1976376043,node,Panna Marie Pomocnice,49.2777003,16.4613665
1978667375,node,Heinrich Pelikan,49.2152302,16.5353278
1979032287,node,"Ostopovice, rozcestí",49.1630535,16.5428958
1979058961,node,"Ostopovice, náměstí",49.1610897,16.5457624
1983135168,node,Pod Kněží horou,49.2739776,16.6143976
1983566402,node,Knihkupectví Wolters Kluwer,49.2084382,16.5922071
1983566404,node,Menza Veveří,49.2086625,16.5930332
