id,type,name,lat,lon
8145634,area,Památné stromořadí (lípy),49.1756829,16.529968
8146098,area,Základní škola Bosonohy,49.175961,16.5297391
9348418,area,náměstí 28. října,49.2037981,16.6120282
9348492,area,Pharma Park,49.2485084,16.5904375
9398296,area,Brněnská,49.1843934,16.4035747
9688880,area,Šilingrovo náměstí,49.1925157,16.6051982
10363418,area,vodojem Bosonohy,49.1820434,16.5258136
11768452,area,TK Bosonohy,49.175627,16.5268687
11768456,area,FK SK Bosonohy,49.1749632,16.5272512
11780272,area,Orlovna Bosonohy,49.1735934,16.5326247
12553098,area,RWE Transgas,49.1757017,16.5191092
12553116,area,Nanebevzetí Panny Marie,49.1654902,16.5173061
15453508,area,Lužánky,49.2075472,16.6046556
16141228,area,Brno 2,49.1904204,16.6108996
16307390,area,Zelný trh,49.192252,16.6077407
17342192,area,VIDA! science centrum,49.1863914,16.5832122
17347464,area,lázně Riviéra,49.1866422,16.5704428
20080758,area,Björnsonův sad,49.2076942,16.5925477
30184306,area,Židovský hřbitov,49.1924041,16.6417456
30184308,area,Ústřední hřbitov,49.1705359,16.588159
31750722,area,Kobližná,49.1953781,16.6126531
32272970,area,J. A. Komenského,49.1977986,16.603068
32293222,area,Mendelova univerzita v Brně,49.2103854,16.6122859
32293224,area,Přírodovědecká fakulta Masarykovy univerzity,49.2048776,16.5963583
32293228,area,Botanická zahrada,49.2046109,16.5954514
32293232,area,vodojem Kraví hora,49.2040665,16.5841536
182875,area,Moravská zemská knihovna,49.2087406,16.5935118
32465948,area,Winning Group Arena,49.1854199,16.6014576
32743158,area,Janáčkovo divadlo,49.1982459,16.6103348
32743162,area,Mahenovo divadlo,49.196335,16.6129499
32743164,area,park Koliště,49.1977037,16.6129099
32743166,area,Denisovy sady,49.1909132,16.6050753
32755708,area,Jakubské náměstí,49.1967483,16.6076997
32764230,area,Vazební věznice Brno,49.1740392,16.5784365
33160048,area,Kadetka,49.2279857,16.5954387
34502200,area,Fakultní nemocnice Bohunice,49.1755664,16.567672
34508110,area,Porodnice Obilní trh,49.1991728,16.5945441
34832708,area,Veterinární univerzita Brno,49.2186909,16.592939
37005058,area,Čepro a.s.,49.1562281,16.4986445
40116460,area,Hospic sv. Alžběty,49.1850987,16.5888218
40612226,area,Bohunice,49.1723664,16.5547845
45464304,area,Morava,49.1871819,16.5845659
45464308,area,Pavilon Brno,49.1875553,16.5851388
45464328,area,Expo Parking,49.1836473,16.5801541
45464330,area,Quality Hotel Brno Exhibition Centre,49.1839724,16.5802183
45916362,area,Koperníkova,49.203812,16.6381231
50426924,area,Hutira-Omice,49.1591288,16.4492013
52161110,area,Rajhradská bažantnice,49.0921,16.609111
52178778,area,U žlíbku,49.1912965,16.5301754
52179466,area,Bosonožský hájek,49.1886645,16.4944731
52557118,area,"Základní škola Brno, Labská 27",49.1696368,16.5584024
52608292,area,Slovanské náměstí,49.2229838,16.5900111
52611796,area,Pálavské náměstí,49.205531,16.6571594
52895710,area,Základní škola Gajdošova,49.2023711,16.6435641
53816632,area,Velké pole,49.1872764,16.5362736
53951526,area,Tyršův sad,49.2025289,16.6017949
54158132,area,Janáčkovo kulturní centrum,49.195972,16.604711
54335786,area,TJ Tesla,49.223011,16.6242936
54339404,area,SSO Okružní,49.2229283,16.6207102
54339408,area,SSO Dusíkova,49.2366199,16.6276506
54339440,area,SSO Útěchovská,49.247476,16.6159759
54644604,area,Hřbitov Líšeň,49.2189877,16.7022492
54820994,area,Fakulta informačních technologií VUT,49.2269612,16.5947599
54899368,area,náměstí Republiky,49.2114719,16.6318476
55411680,area,Nástupiště 1,49.1895002,16.6102439
55411690,area,Nástupiště 5,49.1875894,16.6089436
55411710,area,Nástupiště 2,49.1892986,16.6102684
55411714,area,Nástupiště 3,49.1894688,16.6105942
55411720,area,Nástupiště 6,49.1877138,16.6088531
55698060,area,Sokolnice,49.1127865,16.6965664
56040848,area,Jížní náměstí,49.1524559,16.6229065
57354074,area,Hotel Motorsport,49.2054563,16.4281191
57519970,area,Koupaliště Lískovec,49.1649901,16.5560426
57519974,area,Hřiště Pod topoly,49.1658121,16.5558753
57544186,area,Tribuna T2,49.2031798,16.4427678
57544188,area,Tribuna T3,49.202454,16.4455146
57554044,area,ČOV Tetčice,49.170521,16.4180212
57554664,area,STK a emise Rosice,49.1867959,16.4062869
57585454,area,Zahradnictví Chaloupka,49.1668283,16.5187293
57610894,area,Moravský zemský archiv,49.1752136,16.5648067
57613900,area,Všech svatých,49.1687921,16.5115677
57614318,area,ZŠ a MŠ Troubsko,49.1696801,16.5099326
57614344,area,MŠ Troubsko,49.1717182,16.5060737
57614688,area,"Výzkumný ústav pícninářský, spol. s r.o.",49.1738465,16.5052529
57648166,area,U Čoupků,49.1770106,16.5273835
192011,area,Ústav archeologie a muzeologie,49.1966654,16.6014847
57683314,area,Bowling Stodola,49.2164719,16.558271
57801958,area,Campus Square,49.1771663,16.565044
58095852,area,Kostel svatého Václava,49.1966167,16.595517
58371222,area,Poliklinika Horníkova,49.2126749,16.6817268
58478166,area,Vaňkovka,49.1888327,16.6136754
58478176,area,Obchodní centrum Dornych,49.1894811,16.6118842
58478184,area,Wanieck gallery,49.1876666,16.6157292
58478190,area,"Brno, ÚAN Zvonařka",49.1860209,16.6150809
58603536,area,Růženin lom,49.2179406,16.6709439
60310578,area,Úřad městské části Brno-Líšeň,49.207703,16.685843
60772814,area,Nákupní centrum Královo Pole,49.2168797,16.6069252
60773140,area,Teplárna Červený mlýn,49.2166174,16.6051912
60773446,area,Cimburkova,49.21938,16.6054532
60773708,area,Retenční nádrž Červený mlýn,49.2191366,16.60374
61311150,area,Ústřední dílny DPMB,49.2349421,16.5784942
61856982,area,Red Hat,49.226151,16.5819167
62278668,area,kaple Nanebevzetí Panny Marie u hradu Veveří,49.2555325,16.4547325
62466396,area,Motip,49.1821574,16.4809131
62466398,area,Casino Victory,49.1838886,16.4749341
62718142,area,SSO Hapalova,49.2504259,16.5886234
62861212,area,U lesa,49.2685719,16.58348
62861214,area,U mlýna,49.2661941,16.5828469
62861216,area,Prostřední rybník,49.2692983,16.5834242
63100786,area,Zoologická zahrada města Brna,49.2340013,16.529551
63325412,area,Form-Therm,49.2480148,16.5892353
63384916,area,Vinohrádky,49.2469694,16.5903409
63980330,area,divoká prasata,49.2000755,16.5180071
64007150,area,Bezpečnostně právní akademie Brno,49.1826852,16.56085
64007172,area,Šmeral Brno,49.1926384,16.621021
64111678,area,sv. Florián,49.1761185,16.5295085
64114394,area,Domov pro seniory Okružní,49.2339355,16.6205028
64114412,area,Český metrologický institut,49.2342622,16.6220629
64115796,area,Základní škola Blažkova,49.2302535,16.6256772
64124604,area,Základní škola a Mateřská škola Sivice,49.2025046,16.7809602
64124624,area,U hřbitova,49.2072237,16.7876319
64142934,area,Hošnova vila,49.1854417,16.5662781
64142952,area,Bývalá hasičská zbrojnice,49.1753428,16.5305959
64142956,area,SOU Bosonohy,49.1761046,16.5318148
64142978,area,MŠ Konopiska,49.1718212,16.5307245
64292522,area,Šumavská Tower C,49.2099347,16.5914189
64292530,area,Šumavská Tower B,49.2099384,16.5924236
64395330,area,U groše,49.2037752,16.7818911
64395332,area,Kaple,49.2037636,16.7814734
64395336,area,U slona,49.2043833,16.7829447
64408224,area,Penzion List (Koleje VUT),49.2091538,16.5950905
187705,area,Právnická fakulta MU,49.2084747,16.592081
64410534,area,Velké nádvoří,49.1944033,16.5987872
64410542,area,Malé nádvoří,49.1942215,16.5994372
64413440,area,Congress Hall,49.1841163,16.5798162
64413468,area,veletržní kino,49.1891358,16.5821321
64488860,area,Jaselská kasárna,49.2136166,16.6010661
64493056,area,SSO Zemanova-Černozemní,49.1765792,16.6820803
64493342,area,Slatinka,49.1789869,16.6841677
64507472,area,ČOV Brno - Modřice,49.1243896,16.62728
64509750,area,U Havlů,49.191032,16.7758706
64509786,area,U Šírů,49.1914253,16.7728621
64509796,area,Základní škola Tvarožná,49.1899928,16.7745843
64526074,area,Základní škola Pozořice,49.2063175,16.7967012
64912262,area,IBM Centre FG (Reception),49.2256059,16.5772015
64912264,area,IBM centre DE,49.2250175,16.5776395
64912266,area,IBM centre BC,49.2244295,16.578078
64912272,area,IBM Parking place Employee,49.2259315,16.5779727
65027094,area,Kluziště Za Lužánkami,49.2113454,16.6083903
65069194,area,Hudební fakulta JAMU,49.1970525,16.6040396
65070306,area,Chleborádova vila,49.2015221,16.6022073
65079008,area,Památník Leoše Janáčka,49.2015264,16.6026503
65471008,area,SSO J.Faimonové,49.2025864,16.6770314
65471016,area,Gambrinus,49.2030804,16.6786334
65471018,area,"SolidVision, s.r.o.",49.2029499,16.6789606
65523370,area,Dětské hřiště,49.2902949,16.6644008
65531604,area,Dům s opečovatelskou službou,49.2081906,16.7927329
65531612,area,Úřad městyse,49.2084516,16.7882927
65605666,area,letohrádek Mitrovských,49.1883136,16.5889196
65605670,area,Fakulta výtvarných umění VUT,49.1864488,16.5878118
65605674,area,Léčebna pro dlouhodobě nemocné,49.1814102,16.585826
65608500,area,Kohnova cihelna,49.1783561,16.5867881
392361,area,Petrov,49.191174,16.606787
65847084,area,svatý Kříž a Panna Marie,49.190713,16.6068163
65902300,area,SK Malomerice,49.2164222,16.6457849
65946918,area,Krematorium,49.1723058,16.5894879
66531276,area,Areál ZD Pozořice,49.2022231,16.7957489
66808244,area,lesovna u jezírka,49.2693544,16.6297555
66814228,area,Hájenka Soběšice,49.2597817,16.6232859
67026906,area,Trafika U Arthura,49.1941817,16.6408731
67078412,area,Na hřišti,49.2566481,16.6171262
67124870,area,Pronachem,49.2094898,16.7914866
67124880,area,Fanda,49.2090614,16.7924804
67124886,area,Zámeček,49.208751,16.7912729
67124900,area,Pánská zahrada,49.2088684,16.7915156
67124946,area,Lékárna na Městečku,49.2100838,16.791422
67124948,area,Drogerie,49.2101252,16.7915012
67124968,area,zahradnictví,49.2066545,16.7903054
67124980,area,Biocentrum Panská zahrada,49.2073891,16.7927554
67131202,area,Cyklosport,49.1941533,16.6399255
67211500,area,sv. Florián (kaple),49.1769738,16.6875755
67580490,area,školní sad,49.2056392,16.7972256
67580508,area,TECHNO-CONSULT s.r.o.,49.2076196,16.8001726
67623592,area,MŠ Pozořice,49.2092203,16.7963876
67663822,area,Bouda,49.1728663,16.6868335
67786230,area,park Stanislava Krátkého,49.2125793,16.6243042
68080892,area,Penzion U Doležalů,49.1921323,16.6411235
68230876,area,Kongresové centrum Brno,49.1889139,16.5845413
68254036,area,Starobrno a.s.,49.1909329,16.592149
68362040,area,Reda a.s.,49.1829522,16.6887491
68362310,area,Terénky,49.1821572,16.6827024
68400702,area,Letiště Ivančice u Brna,49.0962673,16.4768775
68410328,area,sv. Anna,49.1057475,16.4693421
68432742,area,Kostel Panny Marie,49.1139552,16.4263687
68678650,area,Plynárna,49.1786795,16.6839935
68737712,area,Vlněna Office Park,49.1886116,16.6159578
68778568,area,Šujanovo náměstí,49.1895977,16.6199511
68806670,area,Gymnázium J.G. Mendela a ZUŠ,49.1891497,16.6207143
69252460,area,Praktický lékař,49.2199501,16.7517055
69252472,area,U Zbojníka,49.2196644,16.7527139
69261318,area,Obecní knihovna Mokrá-Horákov,49.2181092,16.7550317
69269284,area,kaple Proměnění Páně,49.2250052,16.7509398
69281558,area,kaple sv. Gottharda,49.2144729,16.7451208
69281566,area,Mateřská škola Horákov,49.213305,16.7441626
69281572,area,V Líchách,49.2187093,16.7475528
69390424,area,Dům s pečovatelskou službou,49.2125827,16.7456138
69396814,area,Zemědělské družstvo Mokrá-Horákov,49.2091901,16.7405927
69398802,area,Milhouse,49.1894125,16.625716
69398852,area,OC Nosreti,49.1909287,16.6218002
69411156,area,Křenová 72,49.1910602,16.6269516
69411158,area,Zderad,49.1909652,16.6263356
69424756,area,Pipuška,49.2137997,16.7452084
69433016,area,Dům s pečovatelskou službou Zderadova 5,49.1900054,16.6273443
69433024,area,MŠ Křenová,49.1908992,16.6276942
69465618,area,Ubytovna Stella,49.1904149,16.6306065
69465638,area,Club 68,49.1905306,16.6308276
69465644,area,HK auto,49.1907512,16.6304837
69558272,area,Horákovská myslivna,49.214397,16.7348719
69786554,area,Bunkr,49.2069328,16.7247658
69978052,area,Psychiatrická nemocnice Brno,49.1843229,16.6372015
70198790,area,Hasičská zbrojnice,49.2095568,16.7951635
71866378,area,Karas,49.1974131,16.6390536
72116306,area,Vrchlického sad,49.2047554,16.6119103
72133464,area,Horizont/Dyha,49.218569,16.639295
73897160,area,Mateřská škola Mazourova,49.1904047,16.6575614
73955978,area,OC Max,49.2208196,16.5181654
74021584,area,Koupaliště Juliánov,49.1917674,16.6529095
74068406,area,"LEAR, a.s.",49.1888722,16.6546102
75087062,area,Střelice,49.1505692,16.5178425
75217290,area,Stáj Scree,49.1440446,16.5037897
75673532,area,Bývalé koupaliště Radostice,49.1384861,16.468012
75673540,area,Sv. Šimon a Juda,49.1320982,16.4781047
75792726,area,Městský stadion Srbská,49.2274222,16.5852411
75838446,area,Orelské cvičiště,49.2463475,16.5763766
75915444,area,Barevné hřiště,49.2039313,16.6590785
76255282,area,Žabí jezírko,49.2301204,16.4803281
76277630,area,Rozmarýn,49.1997593,16.6050876
76538974,area,MŠ Tučkova,49.2083415,16.5974526
76751856,area,Sokolské koupaliště,49.2424126,16.5125835
76909958,area,Spálená - Clarion hotel,49.1905518,16.6147118
77086220,area,"NEDO Plus, s.r.o.",49.1926797,16.6368396
77166662,area,Restaurace a herna U Tety,49.2206455,16.5165195
77565946,area,dům s pečovatelskou službou,49.1525595,16.489888
77565970,area,Koupaliště Střelice,49.1534459,16.4962205
78036786,area,Zemanova kavárna,49.1977014,16.6133
78036792,area,Dům umění města Brna,49.1963203,16.6143648
78238904,area,Hitlerův pilíř,49.2332438,16.521376
78382998,area,Medlánky,49.2371843,16.569548
78496142,area,Golfclub Kaskáda Brno,49.2869605,16.5229591
78504550,area,Policie ČR - Jízdní policie,49.2490158,16.5399792
78721734,area,padlí vojáci Rudé armády,49.1853094,16.5650391
78806340,area,obecní úřad,49.1322576,16.4790771
79339536,area,Písky,49.0955179,16.721418
79340552,area,A4 (ILBIT),49.1771519,16.5716353
79340554,area,A3 (ILBIT),49.1771272,16.5721377
79340556,area,A2 (ILBIT),49.1771012,16.5726464
79342152,area,Pila Tetčice,49.1709408,16.4050516
79348498,area,VH1 (vstup),49.1770647,16.5731879
79348508,area,Morfologie,49.1771065,16.5737567
79403590,area,L - Lůžkový trakt,49.1750377,16.5700979
79452134,area,Střelická bažinka,49.1464848,16.4660632
79456630,area,Bílý dům,49.1982932,16.6021483
79601660,area,X - Diagnosticko-terapeutické centrum,49.175827,16.568535
79601664,area,I2 - Transfúzní oddělení,49.1755857,16.5691731
79601666,area,I1 - Patologicko-anatomický ústav,49.1759318,16.5692155
79609192,area,Z - Gynekologicko-porodniká klinika,49.1755125,16.5717073
79609194,area,CH - Chirurgický komplet,49.1755965,16.5702423
79609196,area,O - Stravovací provoz,49.1750398,16.569942
79609240,area,Crocus,49.1753318,16.5696027
79609338,area,INBIT,49.1779611,16.5717334
79718494,area,G - Psychiatrická klinika,49.1747023,16.5733582
79718500,area,H - Hospodářský blok,49.1754261,16.5734335
79997592,area,Campus Science Park,49.1750115,16.5658797
80018800,area,K1 - Kotelna,49.1760751,16.5756358
80018808,area,U - Oleje,49.1761456,16.5771278
80018810,area,V - Zahradnictví,49.1760068,16.5776838
80018814,area,Q - Magnetická rezonance,49.1754299,16.5772467
80018816,area,N - Oddělení nukleární medicíny,49.1752896,16.5779648
80040432,area,R - Personální odbor,49.1739102,16.5778744
80040438,area,P - Ekonomické a rehabilitační oddělení,49.1743981,16.577863
80307202,area,E - Klinika nemocí plicních,49.1751024,16.5755815
80307204,area,F - Dermato-venerologická klinika,49.1749316,16.5769373
80307206,area,D - Rehabilitační oddělení,49.1749985,16.5763484
80307210,area,A - Klinika infekčních chorob,49.1742865,16.5755278
80307212,area,B - Klinika infekčních chorob,49.1742317,16.5766522
80874546,area,SK Řícmanice,49.2581513,16.6961928
81217510,area,Kuželna,49.1873433,16.3937751
81392220,area,U Musilů,49.2155796,16.5173742
81392224,area,MŠ Sluníčko,49.2153432,16.5168742
82446090,area,Mateřská škola Neklež,49.2011834,16.6809959
82827986,area,EKO gymnázium o. p. s.,49.1703723,16.5598052
83980568,area,Brněnka,49.1759129,16.5265335
83998818,area,Penny market,49.2257343,16.5357059
84595734,area,Kasárna Jana Babáka,49.2170717,16.5885305
84997744,area,svatá Maří Magdalena,49.1922687,16.6105419
84998060,area,svatí Janové,49.1942918,16.610839
84998312,area,svatý Michal archanděl,49.1935145,16.6061764
84998474,area,svatý Tomáš apoštol,49.1980384,16.607454
85959148,area,Mateřská škola Božetěchova 65,49.2296423,16.5926162
85959152,area,ZUŠ Vítězslavy Kaprálové,49.2295881,16.5920379
86082050,area,ARMY PARK Ořechov,49.1058776,16.5396247
86082060,area,pohřebiště Rudé armády,49.1088921,16.5264195
86661240,area,Lipsko,49.1942302,16.5396269
86982690,area,Kaple Panny Marie Sněžné,49.1883793,16.7637014
86983432,area,cvičiště psů,49.1569557,16.480203
87942392,area,Kancelář veřejného ochránce práv,49.1977104,16.5951528
87989674,area,Synagoga Agudas achim,49.1926791,16.6175382
88041688,area,U Marušky,49.2733192,16.5424476
88096084,area,Dominipark,49.1945877,16.6052675
88656898,area,SSO Bieblova,49.2163411,16.6158122
88732164,area,Fakulta chemická,49.2317231,16.5775241
88732168,area,Forum Business Centre I,49.2261105,16.5806307
88736462,area,Botanická zahrada a arboretum Mendelu,49.2149498,16.6098506
88736470,area,Kasárna Černá Pole,49.2153019,16.6159165
88844828,area,střelnice,49.1856803,16.671234
88845754,area,Vozovna Slatina,49.1836659,16.6683767
88879862,area,sv. Jakub,49.1031194,16.3962377
89049166,area,SOŠ a SOU zahradnické,49.1645782,16.5806502
89272848,area,střelecký stadion,49.2440167,16.608043
89272850,area,Myslivecký stadion Brno,49.2417651,16.6050264
89370156,area,Hodinová věž,49.2260558,16.5964819
89370762,area,Nové Semilasso,49.227276,16.5933976
89376012,area,Městská hala Vodova,49.2277164,16.5834683
89400138,area,Londýnské náměstí,49.1714864,16.5984904
89698172,area,Základní škola Zemědělská,49.2122151,16.6216102
89698176,area,Základní škola Janouškova,49.2204648,16.6210373
89698178,area,Základní škola Jugoslávská,49.212416,16.6228225
89698272,area,Pedagogicko-psychologická poradna Brno,49.2206462,16.6233906
89698286,area,Jandent,49.218897,16.6219679
89919532,area,Park Národního odboje,49.2124628,16.5928354
89922252,area,Driving Range Žabovřesky,49.2093126,16.5646721
89922284,area,Církev Ježíše Krista svatých posledních dnů,49.2122337,16.569085
89925802,area,Tribon,49.2199565,16.5715378
89925968,area,VR Vychodilova,49.2199857,16.5709239
90022512,area,Královopolská strojírna,49.2240535,16.6014678
90095842,area,ZŠ Svážná; VŠ obchodní a hotelová,49.1742525,16.5527134
90121550,area,TJ Sokol Ostopovice - házená,49.163645,16.5425045
90127632,area,"Výzkumný ústav stavebních hmot, a.s.",49.1689908,16.627016
90172458,area,ZD Jinačovice,49.2614034,16.5236161
90398596,area,dirtbike,49.2440342,16.5961488
90474326,area,SK Obřany,49.2270103,16.639889
90792748,area,Gymnázium Brno-Řečkovice,49.2467412,16.5780071
90849186,area,Park Řehořova,49.1844426,16.6361142
91344550,area,Husovice,49.2398777,16.6279998
91638908,area,zřídlo Šaratice,49.1021099,16.7995419
91705092,area,Brno Business Park,49.1722571,16.5975122
92297448,area,CAMEA,49.2434645,16.5787505
92297460,area,Ubytovna,49.2428978,16.5790682
92317708,area,Dragon,49.2472017,16.5791377
92325198,area,Minigolf na Lesné,49.230139,16.6228376
92325208,area,Hotel Orion,49.2350295,16.6240441
92383300,area,Zmole,49.2411501,16.5792217
92383328,area,Geofyzika,49.2414855,16.5782794
92512112,area,Amulle,49.1913522,16.6287549
92688224,area,Teplárny Brno,49.174848,16.5512694
92707410,area,Vránův mlýn,49.2658105,16.5828532
92961530,area,Mateřská škola Slavíčkova,49.2252683,16.6196523
92961568,area,Duchovní centrum P. Martina Středy,49.2253727,16.6235442
93017120,area,Sladkovského,49.2246584,16.6017496
94018300,area,Triniti,49.1886133,16.6130696
94258764,area,Mateřská škola Vaculíkova,49.2279799,16.620606
94258808,area,Speciální škola Ibsenova,49.2303187,16.6184649
94620324,area,Mateřská škola Šrámkova 14,49.2262482,16.624592
94629860,area,Koberce Trend,49.2240984,16.622616
94629876,area,Nový domov,49.2224806,16.6217083
94629926,area,Mateřská škola Loosova,49.2316823,16.6157652
94736674,area,Hotel Noem Arch,49.2190655,16.6060512
94745910,area,Plavecký stadion Za Lužánkami,49.2145384,16.6064386
94745942,area,Společenské centrum městské části Brno-sever,49.223074,16.6216996
94745958,area,Sportovní centrum ZŠ Janouškova,49.2205525,16.6225726
11116697,area,Vodojem Holé hory,49.2239762,16.6301353
94838254,area,Mateřská škola Šrámkova 1,49.2246298,16.6273329
94838260,area,Základní škola Milénova,49.2282504,16.6229152
94838288,area,Mateřská škola Brechtova,49.2322399,16.6272934
96108312,area,Vintrovna,49.1813648,16.4911167
96275458,area,Gym & Joy,49.1921119,16.6206168
96326880,area,sv. Klement Maria Hofbauer (kostel),49.1643054,16.611698
836701,area,Fakulta podnikatelská,49.2315005,16.5726786
96689440,area,Poměnky,49.175613,16.5563045
96689486,area,"Lužánky – středisko volného času, pracoviště Lyska",49.175927,16.5550021
96795614,area,"Gymnázium Brno, třída Kapitána Jaroše 14",49.2023335,16.6110376
96796498,area,Střední škola grafická Brno,49.2016643,16.6118971
97203680,area,Big C,49.2227435,16.6256826
97350030,area,Spínací stanice 25 kV,49.220511,16.6280162
97356808,area,Nova Servis,49.2158686,16.6272948
97356932,area,Soběšická MŠ,49.2196188,16.6335583
97508728,area,1. NH BRNO,49.2412898,16.5878116
97845956,area,Kraví hora,49.2016864,16.5850882
98289474,area,Zmrzlina,49.2335406,16.6234425
98289478,area,Zlatý potok,49.2336081,16.6234464
98365456,area,Tělocvičny Purkyňova,49.2226908,16.582115
98875704,area,Zemská úřadovna a nájemní byty Všeobecného penzijního ústavu,49.2063508,16.5956348
98875708,area,Úřednický obytný dům bratří Thonetů,49.2060749,16.5962476
98875714,area,Nájemní dům Úrazové pojišťovny dělnické pro Moravu a Slezsko,49.2059238,16.5952614
98891820,area,Nájemní dům Penzijního ústavu,49.204877,16.5930369
99030238,area,Integrované centrum volného času BOSA,49.1714145,16.5301099
99270866,area,Kartouzská tržnice,49.2264461,16.5914364
99270944,area,Villa Marie,49.2253127,16.5931655
99270968,area,Jaruškův dům,49.224558,16.5938505
99271010,area,Miroslav Šimek,49.2263467,16.5942807
99271012,area,Autoservis Lubomír Novotný,49.2262801,16.5939296
99271248,area,Česká pošta - Brno 12,49.2255486,16.5957424
99354864,area,Kristkův dům,49.2103297,16.6251797
99983884,area,Kudelův rodinný dům,49.2000205,16.5810015
99993496,area,"Ústav fyziky země, PřF MU",49.1961536,16.5892627
99996464,area,Krajské státní zastupitelství Brno,49.1965671,16.6107104
99996466,area,Divadelní fakulta JAMU,49.1961437,16.6107272
99996468,area,Český rozhlas Brno,49.1965432,16.6101514
811397,area,Rektorát JAMU,49.1963346,16.6102381
99996844,area,Palác šlechtičen,49.1954029,16.6089081
99997358,area,Česká televize Brno,49.1974169,16.6097264
99997364,area,Exekutorský úřad Brno-venkov,49.1969785,16.6095668
99998100,area,U Kamenné panny,49.1933386,16.611147
99998200,area,Obchodní galerie Orlí,49.1935986,16.6099268
811445,area,Kleinův palác,49.194074,16.608395
99999076,area,RentBike.cz pujčovna kol a elektrokoloběžek,49.1939244,16.6075594
99999092,area,Dům pánů z Lipé,49.1942108,16.6077486
99999372,area,Velký Špalíček,49.1931846,16.6067145
99999378,area,Dům pánů z Kunštátu,49.1931715,16.6062795
99999598,area,Omega,49.1949014,16.60886
811473,area,palác Říkovských z Dobrčic,49.1950848,16.6088579
811471,area,Schrattenbachův palác,49.1952718,16.6094088
99999614,area,Herringův palác,49.1949535,16.6088495
100004056,area,Tržnice Brno,49.1927484,16.6079253
100004766,area,Barešův dům,49.1973084,16.6011536
100006674,area,Nejvyšší správní soud,49.1975429,16.6064137
100007576,area,Petrinum,49.1996691,16.6011727
100007608,area,Městská správa sociálního zabezpečení - Brno,49.1989464,16.6024011
100007622,area,Čajovna U Zlatého lístku,49.1985462,16.6011317
100008384,area,Tivoli,49.204407,16.5942323
100009050,area,sv. Rodiny,49.201405,16.597107
100009390,area,Ústřední knihovna FF MU,49.2006151,16.597298
100009862,area,Chráněné bydlení sv. Michaela,49.1996259,16.5956232
100010606,area,Gymnázium tř. Kpt. Jaroše - budova Přiční 16,49.2000344,16.6154607
100026984,area,ZŠ Bosonožská,49.1659317,16.5541919
100028494,area,PharmaPoint,49.1688215,16.5561195
100052228,area,Panny Marie pomocnice křesťanů,49.2158592,16.5778413
100053392,area,Rubínek,49.2180829,16.5788008
100053444,area,domov důchodců,49.2216376,16.5709698
100058662,area,Oddělení vývojové genetiky rostlin BFU,49.2213776,16.579785
100096930,area,Pavilon 5,49.2050017,16.5968859
100096932,area,Pavilon 2,49.2052366,16.5972044
100096936,area,Pavilon 11,49.2037022,16.5981497
100096938,area,Pavilon 8,49.2040952,16.597364
100096950,area,Pavilon 7,49.2044278,16.5970746
100096954,area,Pavilon 9,49.2041951,16.5967166
100096956,area,Pavilon 14,49.2046306,16.5961773
100096964,area,Pavilon 13,49.2040018,16.5970292
100096972,area,Pavilon 6,49.2048622,16.5964809
100096982,area,Pavilon 1,49.2047607,16.5977594
100096984,area,Pavilon 3,49.2043796,16.5982059
100096986,area,Pavilon 10,49.2054252,16.5970361
100097198,area,ZŠ a MŠ Kotlářská,49.2055723,16.5975587
812343,area,Nový zemský dům,49.1989968,16.6032777
812347,area,Skleněná louka,49.2003917,16.6028365
100098018,area,Církev Bratrská,49.1999785,16.6032645
100098030,area,Církev bratrská,49.200161,16.603493
100342204,area,Hlídka 2,49.1940231,16.6028084
100342218,area,Tělocvična pod hradem,49.1959695,16.602624
100342220,area,Středisko ekologické výchovy Hlídka,49.1943913,16.6018214
100342226,area,Uměleckoprůmyslové muzeum,49.1944719,16.6045157
100342234,area,Besední dům,49.1962306,16.6039005
814633,area,Pražákův palác - Moravian Gallery,49.1955474,16.6041402
100344690,area,d'Elvertův palác,49.1914746,16.6080148
100344796,area,Střední škola umění a designu a Vyšší odborná škola Brno,49.19364,16.604807
100344818,area,Dietrichsteinský palác,49.191809,16.607862
100344822,area,Palác Hausperských z Fanálu,49.1919637,16.6076572
814695,area,palác Opata žďárského kláštera,49.1920512,16.6072734
100344870,area,Lurdská jeskyně,49.1934133,16.6063999
100344906,area,Palác Jalta,49.194571,16.6060031
100351186,area,Hokejové haly dětí a mládeže,49.21296,16.6049934
100351196,area,Červený mlýn,49.2165808,16.605727
100351204,area,OMV top wash,49.2160116,16.6048594
100354936,area,ZET Office,49.2068394,16.6357667
100354990,area,Zbrojovka Brno,49.2080152,16.6362113
100567484,area,Avion,49.1966638,16.6059197
100567488,area,Farní úřad sv. Jakub,49.1966534,16.60717
100567498,area,ZŠ Husova 17,49.1962626,16.6071308
100567508,area,Vágner,49.1966059,16.605978
100625030,area,"Všeobecná zdravotní pojišťovna, a.s.",49.1938572,16.6133626
100625054,area,Palác Morava,49.1949849,16.6140491
100625066,area,palác Morava,49.1952632,16.6138042
100625082,area,Měnínská brána,49.194275,16.6125963
100625160,area,OD Centrum,49.1952157,16.6121107
100630860,area,Letmo,49.1917745,16.61218
817533,area,Grandhotel Brno,49.1923773,16.6126597
100630922,area,"DPMB, a.s.",49.1936842,16.6129833
100630924,area,Kaple Krista na hoře Olivetské,49.1935411,16.6128092
100632964,area,palác Padowetz,49.191022,16.6101631
100632966,area,Klášter kapucínů,49.191301,16.6093371
100764482,area,Údolní 72,49.1992967,16.5869401
100764516,area,Penzion Grohova,49.1996486,16.5890283
100764598,area,Gutmannova vila,49.1986668,16.5901528
100777906,area,Kraví hora VUT,49.2030047,16.5861685
100781468,area,Moravák Brno,49.199949,16.6056725
100781494,area,Filozofická fakulta MU – budova N,49.2010033,16.6035875
100781584,area,Berglův dům,49.2002885,16.6070484
100781594,area,Nadační dům Valentina Falkensteinera,49.2000205,16.6063028
100781672,area,ZŠ Antonínská,49.2027937,16.6046543
100810004,area,Sokol Brno I,49.2036682,16.5997833
100810076,area,Střední průmyslová škola elektrotechnická,49.2027747,16.6008491
100817384,area,Pozemkový úřad,49.2078134,16.6030991
100817412,area,Krajská správa Policie Jihomoravského kraje,49.2044784,16.599084
100817502,area,HZS Jihomoravského kraje - ÚO Brno,49.2052741,16.6052737
100817516,area,Masarykův studentský domov,49.2045936,16.6024601
100817582,area,Divadelní studio Marta,49.2058986,16.6016901
100817598,area,Nejvyšší soud České republiky,49.2051337,16.6017155
100817728,area,Obchodní centrum Meta,49.2071802,16.6037297
100821506,area,Policie ČR - Obvodní oddělení Brno-Židenice,49.2024961,16.6093011
100821512,area,Městské divadlo Brno,49.2015281,16.6076912
100821524,area,Úřad pro ochranu hospodářské soutěže,49.2008075,16.6104607
100822600,area,"Finanční úřad, Územní pracoviště IV",49.2104849,16.6031946
100822668,area,Sanatorium Helios,49.2087668,16.6039148
100822828,area,Církev adventistů sedmého dne,49.2099006,16.6068714
100868510,area,kulturní středisko Musilova,49.2095732,16.6299515
100874946,area,"D,E,F",49.2257224,16.607461
100875510,area,Základní škola nám. Svornosti,49.214551,16.5802118
100877090,area,M-palác,49.1770876,16.60402
100877102,area,Česká pošta s.p.,49.1778333,16.6024677
100877142,area,Spielberk office center,49.181882,16.6042559
101089028,area,Panny Marie,49.1522822,16.6563915
101093696,area,Brněnské komunikace a.s.,49.1828365,16.6015485
101095774,area,TTC Moravská Slavia Brno,49.1829053,16.5961193
101096110,area,Gymnázium Vídeňská,49.1812852,16.5954284
101109682,area,Bakešův pavilon,49.1939429,16.5883121
101109686,area,PET centrum,49.1939375,16.5869544
101109704,area,Švejdův pavilon,49.1946451,16.5867213
101109766,area,Lékařský dům Mendlovo náměstí,49.1904936,16.5939291
101109816,area,Mendelův včelín,49.192437,16.593731
101109828,area,Morávkův pavilon,49.1947872,16.5900283
101109868,area,Klubovna,49.1960452,16.5937851
101109914,area,Ústav soudního lékařství Fakultní nemocnice,49.1970979,16.5916118
101109916,area,Ústav soudního inženýrství VUT,49.1978366,16.5900959
101110500,area,Surgal Clinic,49.2077327,16.6111615
101110700,area,"Ústav geoniky AV ČR, v. v. i.",49.2073762,16.6140348
101110718,area,Vila Löw-Beer v Brně,49.2061023,16.6133861
101110732,area,"Ústav geoniky AV ČR, v. v. i. (knihovna)",49.2070885,16.6133256
101110764,area,Arnoldova vila,49.2071655,16.6142631
101110772,area,Vila Tugendhat,49.2072572,16.6158551
101127062,area,Masarykův onkologický ústav,49.1947059,16.5864613
101186584,area,SZŠ a VOŠ zdravotnická,49.2045385,16.6222253
101186616,area,TJ Sokol Brno II.,49.2027963,16.6222161
101186628,area,Old Town Hotel,49.2026251,16.6234596
101187200,area,Tron Laser Arena,49.203532,16.622627
101187212,area,Sport Balkán,49.2035176,16.622675
101187222,area,Dům zdraví Marty Hartlové,49.2038628,16.6236941
101190534,area,H;H1;H2,49.1903037,16.5995322
101190562,area,J;J1;J2,49.1902871,16.5970698
101190598,area,sv. Anny,49.1905602,16.5988638
101190710,area,Pellicova,49.1928571,16.5979222
101190724,area,D1;D2;D2a;D2b;D3,49.19024,16.6021764
101190746,area,S;S1;S2,49.1894481,16.6014192
101190778,area,Anenská,49.1908857,16.6019177
101190906,area,Kooperativa,49.189865,16.6073721
101191094,area,Betlémský kostel,49.193058,16.6021861
101240704,area,Hotel 7 Nights,49.189623,16.5950087
101240706,area,Big One Fitness,49.1890303,16.5965947
101274018,area,Jump park Brno,49.1738908,16.5978227
101286696,area,Gymnázium Matyáše Lercha,49.2075262,16.587833
101286706,area,Jezdecké potřeby Smékal,49.208705,16.589277
101286754,area,TJ Moravan Brno,49.2089118,16.5897903
101304944,area,Orea Congress Hotel Brno,49.1857491,16.584531
101318702,area,Středisko volného času Lány,49.1658455,16.5784342
101352080,area,BAR & RESTAURANT BAVORSKÁ,49.229837,16.591268
101352384,area,U kotelny,49.2306319,16.5823858
101352434,area,Mateřská škola Herčíkova,49.230511,16.585788
101352660,area,Fuchsia office park,49.230925,16.590548
101381424,area,TJ Sokol Královo Pole,49.2243353,16.5908379
101381590,area,Venia,49.226759,16.5895697
101381728,area,Aldiana,49.228191,16.5914237
101381768,area,Sklenářsrví,49.2290119,16.5895918
101469414,area,Technické muzeum,49.22853,16.581242
101566924,area,Radnice Královo Pole,49.2237465,16.5940074
101582040,area,Lerchova 14,49.1967933,16.5854901
101582144,area,Kumpoštova vila,49.1960786,16.5829001
101582258,area,Rodinný dům dr. Karla Bělohradského,49.1953902,16.5867708
101582264,area,Nájemní domy Stavebního družstva Na Vyhlídce,49.1955093,16.5858092
101582306,area,Haselmannův rodinný dům,49.1953113,16.5847154
101582348,area,Pavlíčkův rodinný dům,49.1962325,16.5852082
101614176,area,Vila Haas,49.1929579,16.5764749
101614190,area,Hechtova vila,49.1929136,16.5741389
101614210,area,Patočkova vila,49.2016085,16.5732511
101614214,area,Krohova vila,49.2019328,16.5769853
101614230,area,Fuchsova vila,49.2068858,16.583793
101615836,area,Nádvoří Staré radnice,49.1929915,16.608187
101619802,area,Ústav analytické chemie Akademie věd České republiky,49.2077066,16.5903094
828145,area,Ústavní soud České republiky,49.198,16.603678
101798572,area,Fantázie,49.20503,16.6403852
101891864,area,Úrazová nemocnice v Brně,49.197923,16.6149647
101891866,area,Úrazová pojišťovna,49.1977802,16.6144994
101909096,area,rezidence Briga,49.2125656,16.6001492
101909974,area,Domov pro osoby se zdravotním postižením Srdíčko,49.2119775,16.5909443
101910000,area,EIM elektro,49.212551,16.5897567
101910352,area,Koleje Kounicova,49.2106998,16.5939935
101911902,area,Svojsíkův srub,49.2084802,16.6076241
101912486,area,Botanická Domov mládeže,49.2042027,16.6029164
830893,area,palác Chlumeckých,49.1959739,16.6065542
101989834,area,Šmoldus,49.0975005,16.7593349
101989838,area,Rychmanovský rybník,49.1013153,16.7659528
101990912,area,Koupaliště Řícmanice,49.2575542,16.6956699
101990942,area,Strhovec,49.292146,16.7855562
101990958,area,Hádecký rybník,49.2485585,16.7585142
101993430,area,Rebušín,49.1723568,16.4219612
101993434,area,Žebětínský rybník,49.214334,16.4905874
101993436,area,Radův rybník,49.214416,16.4817182
101993538,area,Šelše,49.1535256,16.5480083
101993632,area,Mokerská nádrž,49.2164715,16.7755635
101993646,area,Grunty,49.1536342,16.7630181
102023380,area,Zukalův rybník,49.1955443,16.7188418
102084982,area,zámek Chrlice,49.1353999,16.6519757
102084986,area,Úřad městské části Brno-Chrlice,49.135973,16.6528497
102090496,area,Medlánecký rybník,49.2434128,16.5696079
102209410,area,T28 Švermova u č.14,49.1693968,16.5743258
834681,area,Základní škola a Mateřská škola Chalabalova,49.1929775,16.5413485
102402328,area,MŠ Libušina třída,49.1935999,16.544366
102530292,area,Fialska,49.1267205,16.4527361
102532296,area,Primál,49.1180275,16.6115438
102532302,area,Splaviska,49.1337232,16.642631
102532308,area,Roučkovo jezero,49.1500784,16.6438485
102532310,area,Plavecké jezero,49.1472524,16.6424216
102532312,area,Opleta,49.1454499,16.642539
102532314,area,Kocábka,49.146917,16.6433547
102532316,area,Strakovo jezero,49.1464445,16.6423114
102532320,area,Ledárenské jezero,49.1486224,16.6430073
102532324,area,Mateční,49.1452094,16.6455437
102532326,area,Lávka,49.1462627,16.6446923
102548728,area,Stravování,49.1854536,16.5966749
102548754,area,Ekonomické a správní oddělení,49.1846906,16.5974132
102548770,area,svatý Leopold,49.185039,16.5953946
102548780,area,klášterní konvent,49.1849214,16.5953596
102548790,area,Akutní medicína,49.18505,16.596446
102548826,area,Rehabilitace,49.185424,16.597706
102552436,area,Specialized Svorada,49.1760764,16.6035567
102609466,area,Boulder centrum,49.232877,16.571108
102623100,area,"Městský soud v Brně, Okresní soud Brno-venkov",49.1824975,16.6024115
102623102,area,Městské a Okresní státní zastupitelství,49.1819009,16.602995
102639360,area,Vila s ateliérem Johanna Tomoly,49.1888716,16.604574
102639674,area,Správa železnic,49.1892554,16.6093664
102639682,area,Městský úřad Šlapanice – pracoviště Brno,49.186126,16.6134117
102742424,area,Poláškova vila,49.1980451,16.5806355
102742762,area,Tomešova vila,49.1955373,16.591998
102742800,area,Vlastní vila arch. Mojmíra Kyselky,49.1961385,16.5921542
102742994,area,"MOL, Brno - Pisárky Bauerova",49.1835399,16.5789102
102743162,area,Bauerův zámeček,49.1867447,16.5773039
102743174,area,Nový Tuzex,49.1902222,16.5697746
102743362,area,Reissigova vila,49.1937062,16.5720704
102743488,area,Office Centre,49.1907704,16.5791488
102743506,area,STORMWARE,49.1905186,16.5823432
102775240,area,Skautská základna Strážná,49.2784096,16.5779448
103043704,area,Památník obětem světových válek,49.2407807,16.5707723
103401276,area,10 - Hala Veterina,49.2160707,16.5957934
103402652,area,Obecní uřad Česká,49.2824298,16.5644117
103402794,area,Pension Anitka,49.2691024,16.5693359
103403110,area,Krajské vojenské velitelství AČR,49.2143056,16.5955836
103403628,area,Poliklinika Dobrovského,49.219275,16.59282
103405938,area,Tělocvična Chodská,49.218187,16.591417
103407326,area,Linden,49.2644103,16.5645659
103407692,area,Druhý dech,49.2661702,16.5662782
103408070,area,Tauferovy koleje,49.2151216,16.5878128
103408114,area,Babák Office,49.2165852,16.5879071
103433312,area,Kostel sv. Jiří,49.1072745,16.5149043
103443892,area,Kulturní centrum,49.1103978,16.5144304
103453082,area,Komunitní centrum Dona Bosca,49.1039239,16.7570134
103482798,area,Hasiči Královo Pole,49.223686,16.5995067
103487738,area,Q: Provozně ekonomická fakulta,49.2096805,16.6137127
103496028,area,Národní památkový ústav,49.2202856,16.5970741
103498244,area,Harley-Davidson Brno,49.2236515,16.6087111
103498272,area,Rytech kovo s.r.o.,49.22205,16.61674
103498306,area,AFRY CZ,49.2222866,16.6149691
103508418,area,vozovna Medlánky,49.2324855,16.5773756
103508424,area,Winston B,49.2323714,16.5805109
103508426,area,Winston D,49.2325134,16.5793209
103508428,area,Winston C,49.2327117,16.5800102
103508488,area,Vista,49.2359705,16.5820532
103511356,area,Národní úřad pro kybernetickou a informační bezpečnost,49.2078733,16.5839623
103511456,area,MŠ Brno Žižkova,49.2086033,16.587302
103511528,area,Šilhanovo Sanatorium,49.2099146,16.5876136
103512112,area,ZŠ Sirotkova,49.2102807,16.5820676
103559932,area,MVDr. Dalibor Smutný,49.1695166,16.5212963
103565176,area,Stavební bytové družstvo Družba,49.1706527,16.5855271
103575930,area,Jihomoravské inovační centrum (JIC),49.224012,16.574466
103575950,area,Sportovní hala VUT,49.226626,16.572873
887443,area,Atletický stadion pod Palackého vrchem,49.226161,16.571408
103575974,area,D5 (NETME),49.2247164,16.5732641
103578228,area,Gymnázium Křenová,49.1910162,16.6196861
103578308,area,Mateřská škola Mlýnská 27,49.190129,16.619102
103583718,area,Vulcano,49.1677795,16.5746245
103585096,area,Jurkovičova vila,49.2065899,16.5759606
103585100,area,Rosnička,49.2063297,16.5764306
103585172,area,sv. Augustin,49.2026492,16.5809538
103585252,area,Dvořákova vila,49.2038256,16.5786681
103586724,area,"Masiv parket centrum, s.r.o.",49.2075302,16.581735
103592286,area,Dům Jana Kunce,49.2069454,16.5752885
103592432,area,MŠ Fanderlíkova,49.2103358,16.5750739
103595766,area,Zdravotní středisko Konstancie,49.2185843,16.552853
103600746,area,Gymnázium P. Křížkovského s uměleckou profilací,49.2220441,16.5549766
103624504,area,Kavárna ERA,49.2105644,16.6190036
103639408,area,malá vodní elektrárna Komín,49.2180697,16.5525172
103639462,area,Hasiči Komín,49.2142359,16.5585266
103646558,area,Na Piavě,49.2096998,16.5559496
103646560,area,U Filipa,49.2095398,16.5562274
103646738,area,České potraviny Machovský,49.2084491,16.5528383
103646752,area,České potraviny Mahovský,49.2084094,16.5525558
103646756,area,Music,49.2083671,16.5523341
103646926,area,Veterinární klinika,49.2078762,16.5543887
103666870,area,Steinův rodinný dům,49.1967441,16.5811828
103666902,area,ZŠ Hroznová,49.1939041,16.5706167
103667026,area,Münzova vila,49.1963562,16.5708844
103667124,area,Bassova vila,49.1947366,16.5773847
103667222,area,Vila Neumark,49.1934938,16.5797996
103667256,area,Dům pro dva mládence,49.1937596,16.5820734
103667324,area,Vila rodiny Koblitz,49.1951398,16.5806994
103667330,area,Vila rodiny Rosenberg,49.1951488,16.5803725
103667404,area,Vlastní dům Eduarda Žáčka,49.1942703,16.5822189
103667410,area,Vila Valerie Fischerové,49.1948678,16.5814144
103667496,area,Rodinný dům ing. Václava a Zdeňky Pokorných,49.1944758,16.5847937
103667578,area,Vila Ernsta Löw-Beera,49.1981829,16.5701655
103667678,area,Rodinný dům Herminy Weiglové,49.1973603,16.5703377
103667684,area,Tesařova vila,49.1970407,16.5711946
103668134,area,Bohuslava Martinů MŠ,49.1989342,16.5752354
103668258,area,Psotova vila,49.2008818,16.5744851
103677042,area,Železná růže,49.189711,16.587347
103689924,area,SSO Ukrajinská,49.17097,16.586656
888693,area,Základní škola Jana Broskvy,49.1347969,16.6549488
103768846,area,Centrum Lipka - Kamenná,49.1851172,16.5922549
103772026,area,"Policie ČR, Brno-Výstaviště",49.185984,16.5872553
103772334,area,Pedagogická fakulta MU,49.1870365,16.5956649
103772786,area,Klub Leitnerova,49.1882899,16.6022704
103987320,area,Kaple Panny Marie (Bolestné),49.1636656,16.6876934
103993972,area,Svratka Brno,49.2172804,16.5501874
104011852,area,NTS Mechatronics Brno,49.1721801,16.6731858
104011902,area,Nano4wash,49.1674323,16.6783879
104011950,area,Porsche Brno,49.1776853,16.6743491
104116728,area,polyfunkční dům,49.2023243,16.598512
104118324,area,Botanická zahrada Lékařské fakulty MU,49.2009282,16.5839677
104256112,area,Domov pro seniory Holásecká,49.1472232,16.6623975
104287036,area,Památník rudoarmějců,49.199535,16.608605
104305044,area,sv. Otmara,49.1005654,16.6730155
104496002,area,Kluziště Vodova,49.2266194,16.5848645
104507126,area,ORGREZ,49.2349747,16.5861273
104507156,area,Poliklinika Medivita,49.2360183,16.5833135
104997838,area,Základní škola Merhautova 37,49.2052924,16.6234704
105019284,area,Základní škola Merhautova,49.2045035,16.6241063
105204882,area,Pastouška,49.2899164,16.6612815
105204966,area,Městské kulturní středisko,49.2914322,16.6632777
105205016,area,ZŠ Ronovská,49.2908244,16.661372
105205044,area,MŠ P. Jilemnického,49.2907329,16.664178
105516618,area,Wilsonův les,49.208497,16.5779164
105741974,area,IBM Visitor and Employe parking place,49.2245947,16.5780461
105741984,area,IBM Visitors Parking,49.2251759,16.5776102
105746942,area,Sport Centrum Ivanovice,49.2589074,16.5716304
106409284,area,Katastrální úřad Brno-venkov,49.188291,16.6113659
106597152,area,U mrtvých,49.1850306,16.6666702
106734554,area,Direct Media,49.1939757,16.6208409
106734614,area,Teplárna Špitálka,49.1960519,16.6188606
106734616,area,Schoellerův palác,49.19871,16.622305
106734792,area,Teplárna Brno,49.1949606,16.6194836
107000508,area,Uni Hobby,49.2257426,16.5371267
107098158,area,Pomník padlých,49.2760595,16.4364954
107103258,area,Jarošův mlýn,49.2735125,16.4303776
107103414,area,Bioster a.s.,49.2792075,16.4295869
107103994,area,Obchodní centrum,49.2751574,16.4377564
107104220,area,Hospůdka U Václava,49.2764828,16.4383769
107329512,area,Brno-Medlánky,49.241789,16.5502446
107394610,area,Hotel Vaka,49.218032,16.6089189
107394618,area,Chladicí věž u Královopolské strojírny,49.2199581,16.6068359
108217434,area,Na Hřišti,49.2035529,16.5584913
108359084,area,Hvězdářská věž,49.2263416,16.5973464
108359088,area,ústav Kociánka,49.2254248,16.6022131
109450890,area,U Heligonky,49.1979332,16.6249967
109510852,area,ROmiLL,49.1964929,16.6274434
109510856,area,Jihomoravské plynárny,49.1950743,16.6231639
110334058,area,Rytech Kovo,49.1875438,16.6218662
110517770,area,ZŠ a MŠ logopedická,49.1963523,16.5650388
111011396,area,U Vojty,49.186643,16.4894711
111012100,area,Hasičská zbrojnice Brno-Žebětín,49.2071968,16.4868476
111013182,area,Požádní nádrž,49.2343238,16.3948072
111335344,area,Haribo,49.259371,16.580507
111335352,area,Obchodní centrum Globus,49.261407,16.5784713
111335978,area,D-Oil,49.2707224,16.5756954
111336020,area,rybník Ledňáček,49.2761823,16.5751506
111336118,area,Badminton Jehnice,49.2706424,16.5943369
111344464,area,Zámeček Střelice,49.1511284,16.4710201
111653144,area,U vrboveckého mlýna,49.2104737,16.5036743
111653186,area,Archa,49.2184736,16.5049048
111686764,area,Mateřská škola Brno,49.1528945,16.6472721
111686770,area,Kmuníčkovo jezero,49.1530542,16.6448204
111687246,area,Pod Lípami,49.1515409,16.6473415
111687338,area,Typfl,49.154379,16.6437806
111687346,area,Kašpárkovo jezero,49.1571103,16.6414753
111687454,area,Elektro Spáčil,49.1609799,16.6372821
111687522,area,Kostka,49.1589328,16.641071
111697194,area,Česká televize,49.1987787,16.6689627
111697366,area,Hluboké jezero,49.2166917,16.6726121
111697514,area,MŠ Poláčkova,49.2102502,16.6775341
111697714,area,Okloučka,49.1550007,16.7446729
111706286,area,Pod Hrádkem,49.2193541,16.7122262
111708272,area,Hornek,49.2332761,16.7227889
111711286,area,Muchova bouda,49.221231,16.7139258
112087724,area,Vojenská nemocnice,49.2028958,16.629478
112087802,area,Panny Marie Čenstochovské,49.202489,16.629551
112284510,area,býv. nádraží Brno - Zábrdovice,49.2033567,16.6282523
112415442,area,Hasičský záchranný sbor Jihomoravského kraje,49.2057222,16.6270352
112432472,area,kaple Uvedení Bohorodice do chrámu,49.2073503,16.6273036
112439690,area,Pán Ježíš v Getsemanech,49.2103577,16.5582775
114075642,area,"MUGENDO-Trading, SPOL. S R.O.",49.1835578,16.6220862
114213444,area,Industra,49.1828404,16.6269472
115533376,area,Nákupní centrum JAVOR,49.2253248,16.5298783
116963976,area,Jižní centrum,49.1863769,16.6090989
117849268,area,Autocentrum Říčany,49.2139734,16.4033611
118277252,area,First shop autoservis a pneuservis,49.1670976,16.6260081
118277256,area,"VELUX Česká republika, s.r.o.",49.1656973,16.6238305
118281664,area,ZŠ Řehořova,49.1841859,16.6340245
118281670,area,Mosilana,49.1813305,16.6315426
118281682,area,SOU Potravinářská a služeb,49.183479,16.6345326
118529228,area,Ergon,49.2168446,16.6605571
118631064,area,Idea nábytek,49.1075597,16.602852
118687588,area,sv. Gotthard,49.1279376,16.6130109
119118622,area,územní rezerva,49.1759231,16.5677431
119142932,area,Penzion U Leopolda,49.1765669,16.6182251
1860357,area,Lázně Brno-Zábrdovice,49.2016639,16.6330496
119608932,area,Zdravotnická záchranná služba JmK,49.1769559,16.5756404
1874647,area,Moravská Slávia,49.183476,16.596686
1874651,area,TJ Favorit Brno,49.184356,16.578238
121456526,area,Zjevení Panny Marie,49.1467914,16.6680069
121880608,area,Knihovna Jiřího Mahena,49.1879409,16.5352934
122188450,area,Bonagro,49.1604851,16.7763052
122405574,area,Arboretum Řícmanice,49.2649753,16.6822223
122519874,area,Sokol Bílovice nad Svitavou,49.2462522,16.6759058
122519948,area,Villa Anna,49.2460155,16.6766114
122519972,area,myslivna U lišky Bystroušky,49.2458552,16.679785
122533988,area,Resselova hájenka,49.2377466,16.6976617
122760328,area,Obecní úřad Babice nad Svitavou,49.281508,16.6941528
122760662,area,Smíšené zboží Hana Ondráčková,49.2841937,16.6969597
122766944,area,Zázemí,49.2916674,16.7232297
122983018,area,Cementárna Mokrá,49.2146753,16.7655311
123164662,area,Základní škola Jasanová,49.2067176,16.5518473
123351594,area,Sýkora Home,49.1685428,16.627404
123654470,area,pod Hádkem,49.2505383,16.761887
129004446,area,MŠ Dubová 1,49.2115148,16.548967
11525613,area,Bílá růže,49.1794773,16.6209974
129503946,area,Česká pošta - Brno 17,49.1791834,16.6210866
129503958,area,Pension Malaník,49.1810226,16.6195482
130178884,area,City Apart Hotel Brno,49.178986,16.6192476
130469184,area,Líšeň,49.2061397,16.6653349
136048006,area,Palachovo náměstí,49.1751437,16.5651636
137852980,area,Základní škola Holásky,49.1431642,16.6510579
138239718,area,Na Veselce,49.1769944,16.5013367
138239904,area,Kytkárna,49.1770674,16.5010386
138880168,area,plánovaná výstavba odstavného nádraží,49.1710345,16.6060331
139151346,area,Letiště Brno,49.1551719,16.6912188
139152066,area,AZ tower,49.1756067,16.6052086
141707344,area,Merhautova 228,49.2172653,16.6278975
141721614,area,Odstavné nádraží,49.1789135,16.6063013
142255346,area,Orel Husovice,49.2116429,16.6290968
142255358,area,Fara Husovice,49.2122224,16.6298692
142388224,area,A26 (CEITEC),49.1785488,16.5698294
142388226,area,Atletický stadion Campus,49.1782948,16.5650755
142388232,area,A32 (CESEB),49.1780766,16.5695114
142388234,area,A25 (CESEB),49.1784333,16.5715358
142388236,area,A36 (CESEB),49.1780957,16.5706085
142388240,area,územní rezerva MUNI UKB bydlení,49.1789582,16.5728028
142388242,area,A29 (CETOCOEN),49.1779875,16.5712259
142388246,area,A31 (CESEB),49.178051,16.5700094
142592264,area,toka design gallery,49.1748015,16.560997
142592272,area,Základní škola Kamínky,49.1777124,16.5568779
142712754,area,Žebětínský hřbitov,49.2030236,16.4859683
142716748,area,Úřad městské části Brno-jih,49.1745216,16.6226338
142716798,area,Koleje MUNI - Lomená,49.1736554,16.625647
142716846,area,Bed & Breakfast,49.1739227,16.6231624
142722196,area,"Vysokoškolské koleje Komárov Sladkého, Masarykova univerzita",49.1737465,16.6279627
142722774,area,"Odborné učiliště a praktická škola Brno, Lomená 44",49.1735478,16.6248767
143001484,area,Základní škola Bakalovo nábřeží,49.1851268,16.5980521
143014822,area,sladovna Briess,49.209564,16.6329136
143044936,area,kaplička sv. Cyrila a Metoděje,49.288488,16.5019565
143553580,area,Amfora,49.2135654,16.6347673
143553626,area,Sál Království - Svědkové Jehovovi,49.2130732,16.6343837
143767260,area,TJ Sokol Brno-Husovice,49.2129279,16.6363506
143767352,area,Zetor a.s.,49.2097608,16.634446
143824100,area,Vechtrovna,49.1637119,16.5262874
145142780,area,CEITEC Science Park,49.2335419,16.5712826
145142784,area,AdMaS,49.2354078,16.5698712
145142788,area,Český technologický park II. fáze,49.2323932,16.5727436
146430808,area,Cacovický mlýn,49.2227082,16.6370797
146430812,area,Psí škola Na Ostrově,49.2235575,16.6379749
146965112,area,Junácká louka,49.2610095,16.4570658
146986126,area,Dirtpark Brno Bystrc,49.2144512,16.5166385
147024504,area,cykloareál Hněvkovského,49.168342,16.6231019
149197130,area,Kopaniny,49.25181,16.5965134
150083962,area,Moravské náměstí,49.1979314,16.6066777
150088782,area,Spielberg Business Park,49.1804538,16.6038873
2306685,area,Domov pro seniory Kociánka,49.2275407,16.6082487
150247212,area,Policie CR,49.2497547,16.5716235
150799014,area,Poliklinika Viniční,49.1975867,16.6557773
150803018,area,T13 Bellova,49.1945661,16.528371
151020180,area,Provaznický Vrch,49.1916388,16.6009711
151213950,area,Pinki Park,49.1903789,16.6049384
152427992,area,Mateřská škola Zvídálek,49.2207657,16.5128678
152427998,area,Mateřská škola Skřivánek,49.2207183,16.5122816
155388464,area,Sedla,49.1765513,16.541919
155397624,area,TJ Rapid Brno o.s.,49.2402798,16.5124326
155720288,area,Teplárna Maloměřice,49.222445,16.6452722
155720312,area,Bývalá cementárna Maloměřice,49.2201263,16.6464053
155720318,area,Feromat,49.2198486,16.6474334
156147806,area,Centrum Královka,49.1647912,16.6286092
156147994,area,Elkov a.s.,49.164409,16.618264
156169196,area,Scio škola,49.1659488,16.6156386
156174124,area,Vinohrady,49.1920877,16.7459906
156850270,area,"Pokorný, s.r.o.",49.1986937,16.6679023
157118114,area,"Siemens Energy, s.r.o.",49.1936864,16.6297737
158803376,area,Lesní lom,49.2193566,16.6894144
160914910,area,Střední škola uměleckomanažerská,49.1926081,16.6356461
161755712,area,park Danuše Muzikářové,49.1981429,16.6074282
161776276,area,Svatoplukova kasárna,49.2059871,16.6421164
161799962,area,"OHL ŽS, a.s.",49.2099339,16.6396085
161800002,area,"SŽDC, s.o.",49.2096022,16.6388705
161800020,area,"A.M.A. Brno, spol. s.r.o.",49.2082606,16.637448
161800042,area,"České dráhy, a.s.",49.2096507,16.6387065
162080988,area,Go Fit,49.2017415,16.6366149
162709468,area,Fakulta architektury VUT,49.1873937,16.5933061
162709470,area,"Centrum výzkumu globální změny Akademie Věd ČR, v.v.i.",49.1870374,16.5920636
163032168,area,Tenisový areál Eso,49.2153988,16.5961837
163039586,area,Aupark,49.1846599,16.6125103
163359146,area,T7 Stamicova,49.1958626,16.539269
163359186,area,T10 Voříškova,49.198896,16.5324346
163359202,area,MŠ Adélka,49.1977497,16.5322491
163359258,area,Tescan,49.1972802,16.546933
163359518,area,T8 Stamicova,49.1973235,16.53735
163374576,area,Aquapark Kohoutovice,49.1932145,16.5405514
163925654,area,MŠ Puchýřova,49.2092443,16.6894297
164910216,area,ČZS Brno Libušino údolí,49.1996254,16.547267
169616220,area,River Park,49.182529,16.6014119
169625868,area,Stavební bazar,49.1782187,16.5338539
169931164,area,Pavilon 4,49.2042799,16.5977303
170141768,area,ŠLP Křtiny,49.291815,16.6349843
170268180,area,Pavilon 17,49.2035983,16.5978012
170268182,area,Pavilon 12,49.203348,16.597318
170268874,area,Manukyan,49.2046251,16.5954332
170425604,area,Exotárium,49.2339027,16.5339182
170425640,area,Rarozi a krkavci,49.2301799,16.5336354
170425706,area,správní budova,49.2301033,16.5331236
170425810,area,Šimpanzi,49.2308256,16.5334767
170425820,area,Levharti,49.2298193,16.5338664
170425842,area,Tropické království,49.2315622,16.5346635
170425848,area,Lemuři a paviáni,49.2304049,16.5339885
170425876,area,ZOO Brno - vstup,49.2297394,16.5326887
170630500,area,Velká Klajdovka,49.2170304,16.6803315
171115198,area,pomník osvobození Žebětína,49.2115005,16.4793125
171119888,area,U Mravence Lesíka,49.2569031,16.5529294
171140244,area,Hotel Velká Klajdovka,49.2171678,16.6797979
171408924,area,Rybníček na návsi,49.203233,16.7799023
173497264,area,Cafc Zidenice,49.2004038,16.6420231
174225608,area,Teplárna Staré Brno,49.1883348,16.5910007
174232150,area,České dráhy,49.2177901,16.6460467
174521290,area,Zemědělsé družstvo Sivice,49.2014252,16.7847261
177949682,area,FN u sv. Anny - Doléčovací a rehabilitační oddělení,49.1830616,16.5601498
177950110,area,T4 Úpatní,49.1784101,16.5602364
178479952,area,Návrší,49.1777633,16.725069
178516204,area,cihelna TONDACH,49.1755355,16.7233684
178516304,area,Pindulka,49.1828232,16.7252935
178540362,area,Sokolnický hřbitov,49.1210252,16.7310672
178714510,area,Sportareál Družstevní,49.246604,16.5762309
178985282,area,U Gogola,49.2215722,16.5107813
179264742,area,ACCOM - ubytování Brno,49.1827721,16.665399
179610998,area,Nekupto,49.1775214,16.7219402
179617860,area,Hřbitov Podolí,49.1875629,16.7191396
180361336,area,Kobylnický hřbitov,49.1318705,16.7312858
181414896,area,Avion Shopping Park,49.1577054,16.6257323
181875052,area,Albert Supermarket,49.1872015,16.6424057
181875172,area,"Advokátní kancelář Brno, JUDr. Lucie Štursová",49.1870358,16.6399169
181875268,area,ZŠ Kneslova,49.1840554,16.6420181
181875554,area,Archiv města Brna,49.1860575,16.6301716
181876066,area,Radnice Černovice,49.1866966,16.6367356
181876298,area,Česká Pošta,49.187629,16.640921
181876768,area,Kadeřnictví Hana Palečková,49.1889603,16.6380419
181877384,area,Autodíly a servisní technika,49.1885948,16.6421777
182207324,area,"Pumpa, a.s.",49.1761011,16.6339063
182208050,area,U Floriána,49.1771331,16.6338625
182208228,area,průmyslová zóna Černovická terasa,49.1721444,16.6328862
182450064,area,Gymnázium Šlapanice,49.1687338,16.7243094
182488964,area,Sv. Václav,49.1443143,16.577791
183167698,area,Mokerská myslivna,49.2307607,16.7410929
183499676,area,Kolíbka,49.1719749,16.7206105
183812500,area,Tenisová hala - občerstvení - petang,49.1707256,16.7178396
187450098,area,COLAS CZ,49.1843383,16.8034121
187789902,area,Tenisový klub Šlapanice,49.1592422,16.7313613
187789946,area,Sportovni areal,49.1704031,16.727901
187789956,area,Čegan,49.1559419,16.7224526
187789962,area,"ZŠ Šlapanice, bazén a tělocvična",49.1695925,16.7285596
187790050,area,Sportovní hala Sokol Šlapanice,49.1584321,16.729422
188243342,area,Žlutý dům,49.1720472,16.7291324
188243364,area,Muzeum Brněnska,49.1693226,16.7269555
188463276,area,Pramen zdraví,49.1915843,16.6047571
188509002,area,Pizzeria La Patas,49.1628272,16.5677842
189000386,area,Základní škola Laštůvkova,49.2184583,16.5217745
190329672,area,Spasitele,49.1972176,16.6384772
190329734,area,Společenské centrum Karas,49.1981203,16.640167
190762270,area,Špice,49.1127736,16.7688571
190930020,area,Bomar,49.1822139,16.6573526
190930094,area,Imos Brno a.s.,49.183885,16.6587931
192152818,area,Sconto,49.1337071,16.6333278
192435938,area,Zámecký park Sokolnice,49.118723,16.7251099
2774925,area,zámek Sokolnice,49.1190546,16.7257566
193122546,area,Africká vesnice,49.236517,16.5345915
194058686,area,Farní sbor Českobratrské církve evangelické v Brně-Židenicích,49.1967238,16.6417124
194069614,area,Spalovna Brno,49.189048,16.664152
195166838,area,FVE Brno-Tuřany,49.1499917,16.6831933
195334524,area,Biskupská,49.1922611,16.6057558
195385456,area,TJ Sokol Moravské Knínice,49.2949453,16.5028336
195894440,area,jezdecká stáj,49.1420715,16.6543894
195894476,area,Restaurace Colatransport,49.1425328,16.6561391
195894478,area,Penzion Colatransport,49.1425357,16.6554687
196204512,area,Domov pro seniory Tuřany,49.1472419,16.6618626
196204514,area,"Mateřská škola Brno, Holásecká",49.1478302,16.6626795
196294440,area,Farma,49.2249601,16.6635793
196296602,area,Esslerova továrna,49.22816,16.649043
196299204,area,Hasiči Brno-Obřany,49.234523,16.6457236
196324906,area,Truhlárna 2,49.1565563,16.6586934
196325368,area,Adminitrativní budova truhlářské dílny,49.1556389,16.6576961
196325566,area,Texas Ranch,49.151327,16.651638
196326326,area,CREATE & ASSETS s.r.o.,49.1543787,16.6524707
196326390,area,Bubla,49.1487838,16.6639389
196326402,area,Pracoviště oboru MSS a zedník,49.156003,16.657618
196328710,area,Hasičská zbrojnice Holásky,49.1438424,16.6528831
196330170,area,Truhlárna 1,49.1563856,16.6579144
196535740,area,Hrobka u Hajan,49.1104706,16.5491517
196535906,area,Obecní úřad Hajany,49.1112931,16.5534136
197586226,area,Exmont-Energo a.s.,49.1612502,16.6012729
197586978,area,Železářství Skořepka,49.1663694,16.5991373
197587122,area,Dektrade,49.1665603,16.6027308
198145256,area,ZŠ náměstí Republiky 10,49.214613,16.6375626
198145358,area,Olli s.r.o.,49.2150367,16.6394815
198145974,area,MŠ náměstí Republiky 10,49.2148035,16.6377107
198146044,area,Tomkovo náměstí,49.2144502,16.6368897
198146926,area,Temma s.r.o.,49.214209,16.6396335
198147146,area,TJ Mosilana,49.2144187,16.6386218
199386404,area,Rybářské potřeby,49.2428013,16.5700936
202321252,area,st. 40,49.1845158,16.6407869
202321258,area,st. 6,49.1825893,16.6388268
202321272,area,st. 23,49.1850561,16.6408226
202321494,area,st. 11,49.1827267,16.6399803
2884755,area,st. 5 & 19,49.1833689,16.6406658
202321532,area,st. 46,49.1838388,16.6405356
202344526,area,sv. Markéta,49.1441276,16.6223368
202801384,area,sv. Kateřina Sienská,49.1525215,16.6230646
203025318,area,WikyLand,49.1327165,16.6348278
203207362,area,"Kolej Josefa Taufera, Mendelova univerzita",49.2151836,16.5876198
203210454,area,Y Soft,49.2224064,16.5802902
203210458,area,Kulturní dům Rubín,49.2180143,16.5768619
204525430,area,Delong Instruments a.s.,49.2330139,16.5870187
204750778,area,Palackého Semilasso,49.227954,16.593374
204753132,area,T52 Čeňka Růžičky,49.1680966,16.575513
204753384,area,Dr. INDY Pub & Indian Grill,49.1672431,16.5750945
204915594,area,Tenisový kurt,49.1876558,16.3940131
205148662,area,Sbor dobrovolných hasičů Bukovinka,49.2926576,16.8053906
206155526,area,Anenský mlýn,49.1345895,16.5287922
206155534,area,Podskalní mlýn,49.1537202,16.5291021
206890678,area,ČVK Brno,49.2391505,16.5143777
206891352,area,TJ Vodáci Brno,49.2420034,16.5127143
207435278,area,Výzkumná školka lesnické fakulty,49.2282346,16.686418
212125110,area,Kasárna Hostěnice,49.2321271,16.7753072
212837036,area,Cihelna Brno a.s.,49.200178,16.6902182
213809230,area,Mohyla míru,49.1281042,16.7623063
214832020,area,Muzeum MHD,49.2013483,16.6935479
215355230,area,InfoTel,49.2106798,16.6880896
215792060,area,U Bernardýna,49.1885673,16.6075545
215792074,area,A Bašta,49.1883599,16.6070201
215822128,area,Malý strom,49.2573691,16.5722588
215943786,area,chata Jelenice,49.2407337,16.8030024
215949222,area,Sbor páně církve československé,49.2493312,16.5809694
216034464,area,Základní škola Horácké náměstí – Uprkova,49.2482659,16.5793249
216080050,area,Maso-Profit,49.2532997,16.5826426
216786492,area,Jílová u č. 34,49.1781655,16.5926797
217261484,area,"Figarostav, s.r.o.",49.1855397,16.4058978
217493674,area,Zukalův mlýn,49.1954491,16.720321
217493698,area,Areál s dětskými atrakcemi,49.2059175,16.7172479
218573350,area,Kynologický klub Brno Královo pole,49.2348588,16.5959067
220735608,area,Edison centrum,49.1959554,16.6160722
220880862,area,parkoviště Lipka,49.1850156,16.592273
223362512,area,Bílovický mlýn,49.2495424,16.6721577
223362588,area,Bílovice Polanka,49.2495992,16.6670118
224268678,area,Snowboard Zezula,49.2344438,16.588211
224465164,area,Letovická,49.2466539,16.5860673
225756416,area,Mateřská škola Měříčkova,49.2455965,16.5837198
228393984,area,Základní umělecká škola Antonína Doležala,49.2015286,16.6867812
230655148,area,Okrasná školka Telnice,49.0997771,16.706785
231009840,area,plánované sídliště Kaménky,49.1789418,16.6423555
232961958,area,ISŠ Sokolnice,49.1158462,16.6996573
233303556,area,Campanula,49.2032277,16.6903161
233999580,area,TNS Modřice,49.1413187,16.6040673
234141720,area,Zetor,49.1995365,16.6761838
234148778,area,Černovice,49.1848675,16.6531237
234157480,area,Výtopna Maloměřice,49.2233318,16.6453911
234350294,area,Jihomoravská obalovna,49.0930718,16.6491442
234350310,area,"AGRO SERVIS CZ, spol. s r. o.",49.0920871,16.6340844
240347160,area,Orel jednota Telnice,49.1016275,16.7184364
241133008,area,Pod kaštany,49.1297339,16.5977697
241900050,area,HR Metal,49.2244958,16.6499225
242325024,area,BVK a.s.,49.2224071,16.655309
242325026,area,HMP Servis s.r.o.,49.2258105,16.6453946
242325048,area,E.ON Servisní s.r.o.,49.2198707,16.656865
242478642,area,Rezidence Martinů,49.1984814,16.5745681
243230216,area,MŠ Přízřenice,49.148885,16.6219013
244140578,area,Základní škola Hamry,49.2218884,16.6427058
244152050,area,MŠ Proškovo nám.,49.2206842,16.6442889
244152218,area,Skautská základna,49.2206075,16.6444198
3352043,area,zámek Troubsko,49.1707752,16.5047164
245379986,area,Obecní úřad Troubsko,49.1708004,16.5057152
245614472,area,Doležal - Troubsko s.r.o.,49.1694708,16.508416
245795956,area,Josef Klimek,49.1695744,16.50823
245887132,area,Socha Pierot,49.1985306,16.6032362
245912668,area,Hostinec Katolický dům,49.1698057,16.5066612
246529074,area,Lékárna Troubsko,49.1691089,16.5049692
247071784,area,"Roscomac CZ, FedEx, Kajot, UPS",49.1586605,16.6448674
249926656,area,Ranch CH,49.2823235,16.6092709
250134712,area,"Zapletal - Kovo, a.s.",49.1642779,16.5665006
250723756,area,Základní škola a Mateřská škola Staňkova,49.2114536,16.603953
251057964,area,Penzion Starý pivovar,49.2922742,16.7570025
251057976,area,Horní mlýn,49.2930172,16.7491535
251252438,area,Centrum obnovy památek architektury 20. století,49.1979059,16.5737457
251390822,area,UMPRUM,49.1889305,16.5834442
252306456,area,Jana Uhra,49.2014966,16.5932687
256887480,area,"Panny Marie, Matky církve",49.2816773,16.7578524
256887504,area,Sbor dobrovolných hasičů Březina,49.2822066,16.7582737
259810026,area,dirty,49.2085159,16.5205326
262574860,area,Laštůvkova,49.2208506,16.521697
265502706,area,Magdalena,49.2541586,16.7638291
266414976,area,Pneuservis Bílý & syn s.r.o.,49.1753062,16.5821847
267913744,area,Jelínkův mlýn,49.2368138,16.7330063
268135446,area,býv. restaurace U Votrubů,49.255871,16.7326318
268151514,area,Hasiči Řícmanice,49.2578155,16.6944349
268320328,area,UP závody,49.2504784,16.6774565
268320348,area,Hasiči Bílovice,49.2458168,16.6736578
20825873,area,Filozofická fakulta Masarykovy Univerzity,49.200787,16.59724
270541928,area,Zetor Tractors a.s.,49.2005924,16.6701507
270799034,area,Jižanský dvorek,49.1715758,16.6164916
271969136,area,Mateřská škola Marie Majerové,49.2201872,16.6323118
275976282,area,Občerstvení U Krokodýla,49.2321891,16.5350284
275976572,area,Bystrc Pod Horkou,49.2206172,16.5333552
276204450,area,Čtyřlístek,49.2262825,16.5350314
276204452,area,Pila Brno - Bystrc,49.2289827,16.5418393
276272616,area,ZŠ Heyrovského 32,49.2278545,16.5261032
276425686,area,Římské náměstí,49.192914,16.6108069
18808439,area,Bývalá káznice Cejl,49.2000596,16.6218859
278495224,area,Biofyzikální ústav Akademie věd České republiky,49.2211936,16.5788827
281823380,area,ZAPA beton,49.1843751,16.8021193
282868754,area,Jízdní doklady DPMB,49.230652,16.5950477
283296888,area,Fakulta strojního inženýrství VUT v Brně,49.2246576,16.572965
283296890,area,Workoutové ihrisko VUT,49.2256557,16.574043
283296894,area,Tenisové kurty VUT,49.2262201,16.5735779
283296922,area,Sportovní areál Pod Palackého vrchem,49.227735,16.5700451
286300358,area,Enapo Potraviny,49.1752628,16.5541906
287201932,area,KáČaTa,49.2173188,16.5493777
288349210,area,DP Přívrat,49.2182375,16.5743232
3905691,area,ZO ČZS Ve Žlebu,49.2284024,16.5656419
289344242,area,ZO ČZS Malina,49.2013853,16.5888207
289344250,area,Hokejová hala Úvoz,49.2035754,16.5905476
289344254,area,ZŠ Úvoz,49.2036392,16.5916382
3915307,area,ZO ČZS Kraví hora II.,49.2058966,16.5869569
289344358,area,Mateřská škola Úvoz,49.2039292,16.5914364
290217490,area,Eso market,49.2145284,16.6427598
290872776,area,Výstaviště Brno,49.1892133,16.5697136
3905693,area,ZO ČZS Kozí hora,49.2311247,16.5659954
292829730,area,Mateřská škola Beruška,49.2176301,16.5800767
294022430,area,Jerex,49.21691,16.4059498
294059914,area,Mateřská škola Bulharská,49.2277783,16.5902573
294583448,area,bývalá lovecká chata,49.2455992,16.55884
294583554,area,soukromé hřiště mateřské školy,49.2423774,16.5703316
65437,area,Rektorát MU,49.1987277,16.6049848
296609958,area,Hornbach-zahrada,49.1782125,16.6048556
298451644,area,Vysílač Hády,49.2225463,16.6745947
298938282,area,U Smrku,49.2281178,16.5872841
301363072,area,Strmá,49.2193959,16.5682596
302491228,area,"Střední průmyslová škola Brno, Purkyňova, příspěvková organizace",49.2257963,16.5790374
302766920,area,Auto Horák,49.2260936,16.5792019
307891256,area,"Energzet, a.s.",49.1911845,16.6675925
307891260,area,"Slévárna HEUNISCH Brno, s.r.o.",49.195741,16.6783291
4151623,area,národní přírodní rezervace Hádecká planinka,49.2216936,16.6683019
310307466,area,Slovanské nám škola,49.2246656,16.5916795
310439586,area,Český technologický park,49.2316323,16.5736999
4169687,area,Dětské hřiště Pod Kaštany 17,49.2114666,16.5888482
310539238,area,Střední škola F. D. Roosevelta,49.2249351,16.6095291
310542876,area,Integrované centrum mobility,49.1973744,16.6049919
311552132,area,"VTP Bohunice (E-Globe, ICT Park)",49.171428,16.582949
4185545,area,ZO ČZS Kraví Hora I.,49.2053207,16.5833599
312349538,area,Malinovského náměstí,49.1946576,16.6145932
312349618,area,Magistrát města Brna,49.1956286,16.614721
4186387,area,CD centrum,49.194461,16.6148364
312379942,area,HZS Brno,49.2109728,16.6026337
313031770,area,BMX dráha Nový Lískovec,49.1752024,16.5489058
313062508,area,Radostický mlýn,49.1423832,16.4765138
313064250,area,Spálený mlýn,49.1311796,16.5064189
313080748,area,Zahradnictví Brabec,49.1309757,16.623484
313086254,area,Unicorn Modřice,49.1310811,16.6030524
314440480,area,"Gymnázium, Brno-Řečkovice",49.2468614,16.5770195
315756004,area,Výpravní budova Dolní Heršpice,49.1542094,16.6076149
315756086,area,Vienna Point I,49.1519716,16.6016643
315756960,area,Vienna Point II,49.152068,16.602394
315757678,area,MPL Stavebniny,49.1519957,16.6051138
315765518,area,Moravany,49.157678,16.592963
316582444,area,Divadlo Na Orlí,49.1942276,16.611961
317647648,area,Minigolf One,49.1674111,16.5698567
317689998,area,Centrum volného času Bystrouška,49.2181784,16.5107303
318046222,area,Gymnázium Slovanské náměstí,49.2225465,16.5907675
318584614,area,Inženýrské Stavby Brno,49.2355802,16.577615
318588072,area,Výzkumný ústav veterinárního lékařství,49.2376489,16.5763752
318611954,area,"Základní škola Brno, Hudcova",49.2389557,16.5770925
318613232,area,"Mateřská škola Brno, Hudcova",49.2377674,16.5804176
319183582,area,Zahradkarska kolonie,49.2466925,16.5713583
319655724,area,parkurové závodiště,49.2118822,16.5018099
322180332,area,Základní škola Herčíkova,49.2319894,16.5844495
322560980,area,Forum Business Centre II,49.2258797,16.5818289
322927352,area,Orient V.,49.1903488,16.6134976
322927380,area,Grilovaná kuřata,49.1901899,16.6130603
323739806,area,sportoviště pro psy,49.1998662,16.536174
324402208,area,Základní škola Novoměstská,49.2421801,16.5868154
325186860,area,Winston A,49.2321802,16.5804549
330462628,area,Pila Jehnice,49.2688286,16.5904667
4432497,area,národní přírodní památka Červený kopec,49.1759933,16.5848329
4432523,area,NPP Jeskyně Pekárna,49.2420346,16.7459281
332089882,area,Jeskyně Pekárna,49.2420346,16.7459281
4432609,area,národní přírodní památka Stránská skála,49.188896,16.6709063
333125142,area,8. PLRO Omice (76.PLRB),49.1806475,16.4413365
333278886,area,Olympia hlavní nádraží,49.1382464,16.6291575
333367812,area,Olympia park,49.1372595,16.6281498
334637686,area,Olomoucká u rozv. 110 kV,49.1846685,16.6539111
335385376,area,Stáčírna,49.1581735,16.6419477
336492254,area,ZŠ Horácké náměstí,49.24928,16.5845652
336499020,area,Helgoland,49.1941157,16.58658
337432772,area,Půjčovna přívěsů Zoso,49.1901631,16.6356994
337432774,area,Odbočka Brno-Černovice,49.1907255,16.6380041
337432776,area,Michal Žofka,49.1901949,16.6358701
337432826,area,"Pneu servis, odtah aut, bazar",49.1901518,16.6349117
338161688,area,Kounicovy koleje,49.2086741,16.5817955
339085174,area,"Manag správní, s.r.o.",49.1554947,16.6490092
339085228,area,"Tigerlak, s.r.o.",49.1580166,16.6474979
344997090,area,Přírodní zahrada U Medláneckého rybníka,49.2423774,16.5703316
345790450,area,FKK (naturistická) pláž Osada,49.2471791,16.4987559
4664301,area,přírodní rezervace Březinka,49.2833593,16.731955
4663049,area,PP Na hájku,49.1634241,16.4546964
348583530,area,Na hájku,49.1634241,16.4546964
4663063,area,přírodní památka Na Skalách,49.2638061,16.4578236
4663099,area,přírodní památka Netopýrky,49.2336252,16.551498
4663131,area,přírodní památka Návrší,49.1781067,16.7250658
4663439,area,PP Písky,49.0957029,16.7214395
4663545,area,přírodní památka Rájecká tůň,49.1657825,16.6418105
4663683,area,PP Střelická bažinka,49.1462998,16.4660097
4663685,area,PP Střelický les,49.1365713,16.5074048
348584840,area,Střelický les,49.1365713,16.5074048
4665303,area,přírodní rezervace U Brněnky,49.2330394,16.6965835
4663941,area,PP Velatická slepencová stráň,49.1919615,16.7550897
348585054,area,Velatická slepencová stráň,49.1919615,16.7550897
4663951,area,PP Velké Družďavy,49.1131965,16.6516998
348585060,area,Velké Družďavy,49.1131965,16.6516998
4663963,area,přírodní památka Velký hájek,49.1762959,16.7207285
4662121,area,PP Augšperský potok,49.19903,16.4656933
348587288,area,Augšperský potok,49.19903,16.4656933
4664243,area,PR Babí doly,49.290015,16.6016101
348587292,area,Babí doly,49.290015,16.6016101
4662227,area,přírodní památka Bílá hora,49.1933427,16.6595309
4662593,area,přírodní památka Junácká louka,49.2603588,16.4579966
4662669,area,přírodní památka Kněžnice,49.2619069,16.6665722
4662939,area,PP Medlánecká skalka,49.2416618,16.5669317
348587656,area,Medlánecká skalka,49.2416618,16.5669317
4663143,area,přírodní památka Obřanská stráň,49.2255187,16.6620951
4664585,area,přírodní rezervace Jelení žlíbek,49.2373944,16.481342
4662643,area,přírodní památka Kavky,49.2193711,16.6658548
4663637,area,PP Soběšické rybníčky,49.2527836,16.604848
348590762,area,Soběšické rybníčky,49.2527836,16.604848
4663839,area,přírodní památka U Staré Vápenice,49.2260686,16.7157019
4665445,area,přírodní rezervace Zadní Hády,49.2434517,16.6962884
4665515,area,PR Špice,49.1127774,16.7688576
4663943,area,přírodní památka Velká Klajdovka,49.2155518,16.6722427
4665373,area,přírodní rezervace Velký Hornek,49.227008,16.712398
4664149,area,přírodní památka Žabárník,49.1219316,16.7047964
4664157,area,PP Žebětínský rybník,49.2156968,16.4855649
4662115,area,přírodní památka Andělka a Čertovka,49.1743068,16.7196384
4664613,area,přírodní rezervace Kamenný vrch,49.1851272,16.5439762
4662749,area,přírodní památka Kůlny,49.2621187,16.4686849
4664093,area,přírodní památka Údolí Kohoutovického potoka,49.1914693,16.5460137
4664297,area,přírodní rezervace Břenčák,49.2685997,16.4542072
4664119,area,přírodní památka Šiberná,49.2911737,16.5495595
4664285,area,přírodní rezervace Bosonožský hájek,49.1886842,16.49447
4664711,area,přírodní rezervace Krnovec,49.2598103,16.4504908
4662971,area,přírodní památka Mniší hora,49.2357908,16.5304496
4663245,area,přírodní památka Pekárna,49.2123719,16.5017566
4654491,area,přírodní rezervace Údolí Říčky,49.2348843,16.7318286
4654455,area,PP Santon,49.1882574,16.7631562
348655176,area,Santon,49.1882574,16.7631562
4654615,area,přírodní památka Skalky u Přehrady,49.2316155,16.5183224
4654701,area,PP Vinohrady,49.1920921,16.745988
4655009,area,přírodní památka Holásecká jezera,49.1571086,16.6409259
4655013,area,přírodní památka Horka,49.1802467,16.7278162
4654953,area,přírodní rezervace Černovický hájek,49.1615852,16.6428463
4655197,area,přírodní památka Medlánecké kopce,49.2361711,16.5651457
4655187,area,přírodní rezervace Malužín,49.2693201,16.6567181
349024984,area,Mateřská škola Absolonova,49.2193964,16.5576342
351495906,area,Sportmax,49.2170168,16.5190834
351687110,area,Klasické a španělské gymnázium,49.2194271,16.5138927
352598528,area,SSO Páteřní,49.2232842,16.5193149
353753868,area,sv. Jan Křtitel a sv. Václav,49.2112826,16.4085406
852625,area,Hlína u Ivančic,49.1284864,16.402363
884113,area,Hlína,49.1284864,16.402363
869643,area,Trnitá,49.183338,16.6074767
868573,area,Nebovidy u Brna,49.1362492,16.5269864
885093,area,Nebovidy,49.1362492,16.5269864
867089,area,Střelice u Brna,49.1527471,16.4551852
847437,area,Sivice,49.220385,16.7671479
855241,area,Prštice,49.1382766,16.433976
851979,area,Radostice u Brna,49.1408777,16.4560873
873689,area,Radostice,49.1408777,16.4560873
864611,area,Ponětovice,49.144885,16.735796
851955,area,Popovice u Rajhradu,49.1012733,16.5894861
873685,area,Popovice,49.1012733,16.5894861
853979,area,Želešice,49.1193887,16.5464083
864801,area,Hajany,49.1131051,16.5415814
853509,area,Jiříkovice,49.1598298,16.7509787
847471,area,Tvarožná,49.1875633,16.7539822
864597,area,Blažovice,49.1684153,16.7639884
872111,area,Podolí u Brna,49.1850544,16.6943558
853529,area,Velatice,49.194746,16.7442328
862207,area,Horákov,49.2117742,16.7121348
866057,area,Ořešín,49.2782289,16.5992328
847255,area,Ponava,49.2131891,16.5922239
869653,area,Otmarov,49.0990964,16.6652768
869663,area,Rebešovice,49.101036,16.6258567
872105,area,Kníničky,49.2677677,16.4535197
859361,area,Jehnice,49.275541,16.5745934
856187,area,Rozdrojovice,49.2568847,16.5018984
847343,area,Mokrá u Brna,49.2392588,16.7311817
873731,area,Mokrá-Horákov,49.2117742,16.7121348
870853,area,Omice,49.1832088,16.4168381
868521,area,Březina u Křtin,49.2924298,16.7077531
859323,area,Ochoz u Brna,49.2475388,16.7078389
867403,area,Řícmanice,49.2541878,16.6786398
372221968,area,Knihovna Jiřího Mahena v Brně,49.2155483,16.6440808
372621546,area,Nová osada,49.2011622,16.6444759
372621750,area,SVS FEM s.r.o.,49.1979181,16.6517955
376925006,area,Outdoor sportoviště VUT,49.2285815,16.5707349
377181446,area,AŽD Praha,49.2541298,16.587977
385415870,area,Plynárenské zařízení RWE,49.2121678,16.4011032
388599262,area,Základní škola Jana Babáka,49.2141581,16.5882814
388599278,area,Technické služby města Brna,49.2139114,16.5869185
391982644,area,BMW servis,49.1745553,16.6944336
391982656,area,obchvat Brno-Slatina,49.1809544,16.6928306
394462128,area,Dráha pro RC modely,49.2599259,16.5809846
395068386,area,Pavučina,49.2648156,16.5813798
395863608,area,"Wistron InfoComm (Czech), s.r.o",49.1769789,16.6605753
395863644,area,Eurom,49.1836092,16.6996838
396688892,area,Wernerův pavilon,49.1940893,16.5875166
399488008,area,CTPark F2,49.1818769,16.6607398
399488010,area,CTPark F4,49.1820028,16.6587677
408495044,area,Sportovní gymnázium Ludvíka Daňka a ZŠ,49.2111164,16.5981324
411236546,area,Vědeckotechnický park profesora Lista,49.2283043,16.5739084
417022680,area,SSO U ZOO,49.2270164,16.5349193
418500536,area,Hřbitov v Ořechově,49.1091647,16.5260286
423319664,area,Hanela,49.2253224,16.5304512
423324544,area,Flamengo,49.2188529,16.5101442
426801972,area,SPŠ Stavební Brno,49.2010601,16.6120271
426801978,area,"Střední průmyslová škola a Vyšší odborná škola Brno, Sokolská, příspěvková organizace",49.2031795,16.5974224
434248340,area,Terminál MHD - trolejbus a vlaková zastávka,49.1625321,16.5690244
440428046,area,Honeywell (CZ27),49.1695867,16.6746193
440477308,area,Celní úřad Brno,49.171991,16.6819615
440477358,area,BMW Renocar,49.1703309,16.6856654
440477410,area,AZ WOOD,49.1693091,16.6851777
440488708,area,Wash Park,49.1836375,16.6734372
17537925,area,Vodárna Stránská skála,49.1897276,16.6758967
443215092,area,Garn hotel Kozí Horka,49.2329024,16.5062184
443222068,area,Hotel Rakovec,49.2310494,16.5086129
443222842,area,Bytová jednotka Laguna,49.230826,16.5078586
448317666,area,Úřad práce Brno-město,49.1820233,16.6020685
451238908,area,Green Office,49.210388,16.6626581
451731730,area,ASC AUTOSKLO BRNO,49.1887895,16.641919
451731732,area,Car service STÁREK,49.1888259,16.6420537
451978532,area,Blahoslavův dům,49.2070215,16.6036797
452461202,area,Semilasso,49.2276101,16.5927633
456726804,area,Skatepark Bzzzukot,49.1970134,16.6570167
460215556,area,Teniska Bar,49.2024275,16.662871
460597892,area,"ASA, a.s.",49.1978706,16.6615449
460597894,area,"Centrum dopravního výzkumu, v.v.i.",49.1972556,16.660701
460630140,area,Ovoce zelenina,49.1954441,16.6498216
465867720,area,T16 Mutěnická,49.2035927,16.6575494
467102136,area,Zetor Gallery,49.1996221,16.6717154
467911702,area,Auto ESA Brno,49.1846297,16.6091749
467917264,area,AAA Auto,49.1851273,16.6481302
472029454,area,ksh profit,49.1882159,16.6244107
872463,area,Stránice,49.2001275,16.569184
866133,area,Veveří,49.2031557,16.5809356
864847,area,Staré Brno,49.194238,16.5812452
869521,area,Město Brno,49.1981964,16.593799
869635,area,Zábrdovice,49.1997805,16.6100171
847543,area,Černá Pole,49.2076152,16.6046051
473642250,area,Restaurace U Volejníků,49.1629524,16.5432611
473642324,area,Zš a MŠ Ostopovice,49.1627251,16.5437213
473643130,area,Obecní úřad Ostopovice,49.161608,16.5450223
872653,area,Dolní Heršpice,49.1501026,16.5961132
865213,area,Nový Lískovec,49.1844199,16.5451309
859637,area,Mokrá Hora,49.2634033,16.5800714
857819,area,Ivanovice,49.2658204,16.5533216
866035,area,Česká,49.2813314,16.5493787
869523,area,Pisárky,49.1942807,16.5451715
870351,area,Holásky,49.1444359,16.6292228
851949,area,Chrlice,49.1135251,16.624093
863401,area,Moravany u Brna,49.1294931,16.5389715
869517,area,Brněnské Ivanovice,49.1713964,16.6325089
859497,area,Obřany,49.2455705,16.6255182
853229,area,Šlapanice u Brna,49.1632651,16.6955246
869641,area,Ostopovice,49.1555805,16.5272112
870165,area,Modřice,49.1328904,16.5695598
865195,area,Přízřenice,49.1358311,16.5896729
863395,area,Bedřichovice,49.179173,16.693806
855039,area,Bosonohy,49.1886841,16.4944718
870171,area,Starý Lískovec,49.1676262,16.5478139
853657,area,Kobylnice u Brna,49.1358648,16.7088409
857895,area,Soběšice,49.270443,16.6036869
864845,area,Dvorska,49.1367778,16.6900341
847117,area,Jundrov,49.2109134,16.5232394
859617,area,Královo Pole,49.2308781,16.5630975
474783860,area,Lamacentrum Hády,49.2201377,16.6657278
475608172,area,Na Slovanech,49.2250331,16.5933939
475631244,area,CAFFE PARK Slovaňák,49.2231925,16.5908652
475976554,area,Klinika plastické chirurgie,49.2259048,16.5888827
477498034,area,Máří Magdaléna,49.267947,16.5291795
858531,area,Proseč u Březiny,49.2866848,16.7525137
6485857,area,Fakulta elektrotechniky a komunikačních technologií VUT v Brně,49.2280431,16.5728436
480893538,area,Driving Range Castle Golf Prštice,49.1199232,16.4708595
482194910,area,Univerzální hřiště,49.2431468,16.5710656
483453060,area,"Dopravní stavby Brno, s.r.o.",49.1869054,16.6630363
853577,area,Prace,49.1369122,16.7495343
491955344,area,Mateřská škola Kamechy,49.2155647,16.4998179
514643310,area,Jan Doležal,49.2763513,16.6314629
516312254,area,Základní škola Horníkova,49.2129903,16.67624
519321904,area,TS 2322,49.1789831,16.5506848
519757986,area,Thermo Fisher Scientific,49.175704,16.6623652
520499652,area,Chata Pohoda,49.2353925,16.4953454
520578404,area,Kaple sv. Scholastiky,49.0918197,16.6319844
520578440,area,ZŠ Rajhradice,49.0922196,16.6318464
520854148,area,H park,49.1745158,16.6029082
521060250,area,Fit4all,49.1764616,16.5479877
521357686,area,Výzkumný ústav včelařský - pokusný včelín Kývalka - oblastní plemenářská včelařská stanice Kývalka,49.188297,16.4501576
521768182,area,AC Titanium,49.1875488,16.6061143
524409094,area,Maximus Resort,49.243373,16.5150886
524409120,area,včelnice,49.2422955,16.5203117
525361024,area,vozovna Pisárky,49.1932982,16.5698851
526432692,area,Panorama Kociánka,49.2333799,16.603226
526738450,area,Kik textil-diskont,49.2259112,16.5326432
527067304,area,T18 U Pošty,49.1676877,16.5660896
529144386,area,Centrum Vídeňská,49.1523481,16.5963928
537227488,area,Hrazda a bradla,49.2161902,16.51111
866143,area,Hostěrádky,49.1196431,16.7578009
873759,area,Hostěrádky-Rešov,49.1196431,16.7578009
856607,area,Jinačovice,49.270961,16.5078534
862681,area,Řečkovice,49.2563252,16.558127
543566654,area,Pétanque,49.2441534,16.5701206
548784656,area,Úzké Majdalenky,49.2342906,16.6184176
551323936,area,Parkour Lesná,49.2281155,16.6317796
551324474,area,T22 Kupkova,49.2367346,16.6289928
551859786,area,Dlouhé,49.2375675,16.6243116
552024448,area,Nový mlýn,49.1290611,16.5473177
552028030,area,"I. Vyškovská stavební společnost, s.r.o.",49.1243893,16.6121139
552029530,area,St. 1,49.1541879,16.4883699
552614684,area,PV Rosice,49.1978035,16.4000539
553122200,area,H+M Penzion Beno,49.1438809,16.621895
553518762,area,Cukrárna a vinotéka U KULATÉ,49.1169045,16.5768472
553579770,area,T - Telefonní ústředna,49.1764521,16.5726366
554066780,area,Kejbaly,49.1773988,16.5796242
559327684,area,SSO Veveří,49.2094659,16.5898299
562188526,area,Etážový lom,49.2193728,16.6672133
562795358,area,Základní škola Kobylnice,49.1376456,16.7338741
562795856,area,Potraviny Tomáš,49.1382721,16.7335097
17537883,area,Kynologický klub Zetor Brno,49.2144141,16.6724661
564484076,area,Batelovský rybník,49.2794055,16.4979487
564534790,area,Polákova chata,49.279919,16.4977159
564536636,area,Rybník pod kaplí,49.2871742,16.5004513
565392198,area,HERBST AERO,49.1503654,16.6792934
568247580,area,Palác Trnitá,49.1868748,16.6128767
569734018,area,Prachéle,49.2130967,16.5539567
574269482,area,Posilovací stroje,49.2441477,16.5706935
581059240,area,Dětské rehabilitační centrum MEDVÍDEK,49.1685563,16.5531145
581548192,area,Olomoucká kiosk,49.1833455,16.6665264
583880168,area,TJ Lodní sporty Brno,49.2317963,16.5097602
584319882,area,Tělocvična Staňkova,49.2138669,16.6026433
584826540,area,Pod Starou hruškou,49.2451305,16.664885
584831962,area,Bílovice Husova Nová,49.2482792,16.664959
594486960,area,Oříšková louka,49.2801727,16.6961673
595490830,area,Mikuláškovo náměstí,49.1697645,16.5645223
595827862,area,JUDR. Jana Haluzy,49.104802,16.7569965
602412880,area,Brno - Líšeň,49.1982519,16.6946833
602552162,area,T40 Scheinerova,49.201543,16.6809563
605647838,area,Hartmann Rico a.s.,49.279378,16.430465
607193708,area,SSO Žebětínská,49.1964691,16.5326801
608053180,area,Mírnost,49.1976014,16.6077146
609312998,area,Ranch U cesty,49.2475454,16.6426795
610653774,area,Le Grand,49.1928612,16.6132874
611885292,area,Pivnice Prádelna,49.2183874,16.6185692
611885728,area,Zone4You,49.2187758,16.615799
612160590,area,Mathonova,49.2167137,16.6206568
612169748,area,Zemědělská 31,49.2119738,16.6229169
612180386,area,Jesličky Fügnerova,49.2191848,16.6213085
612183256,area,Merida czech,49.1675233,16.7142725
613340036,area,Park Marie Restituty,49.213437,16.6283863
613340082,area,Mateřská škola Tišnovská,49.2144539,16.6271163
614215780,area,Veterinární klinika Verivet,49.2185951,16.6266305
614445876,area,Schreberovy zahrádky,49.2084313,16.6200027
615149490,area,Pekárna Kulhánek & Drápal,49.217988,16.508076
615611252,area,"OK Group, a.s",49.2314716,16.5876031
616130726,area,Venhudova,49.2120764,16.6254358
616366748,area,Babická vedle ČD,49.2261795,16.6594498
617428286,area,"nedokončený most ""Hitlerovy dálnice"", tzv. 4. most,",49.1391185,16.5607139
621101044,area,Mateřská Škola Na Osadě,49.202569,16.6383742
621101048,area,"MŠ speciální, ZŠ speciální a Praktická škola Elpis",49.2018235,16.6383001
621711536,area,"Základní škola pro zdravotně znevýhodněné, Brno, Kamenomlýnská 2",49.1945472,16.5696819
624113072,area,Brněnská přehrada,49.2321608,16.5189142
631965430,area,Autoservis Dymáček,49.2249688,16.5924699
855049,area,Troubsko,49.1728542,16.4660203
870851,area,Popůvky u Brna,49.1967036,16.4468788
847085,area,Ostrovačice,49.2011636,16.4025363
873687,area,Popůvky,49.1967036,16.4468788
634162818,area,Kaple Svatého Antonína,49.2334784,16.6152493
634162900,area,Myslínova PET,49.2289241,16.5995855
635332398,area,"TESCAN ORSAY HOLDING, a.s.",49.1890925,16.5325895
636264144,area,Výběh pro malé psy,49.2332053,16.5891639
636264146,area,Výběh pro velké psy,49.2334654,16.5890678
637506354,area,Brno Business Park - 3. etapa,49.1721398,16.5993408
640147678,area,SSO Oblá,49.1741121,16.5581966
641011476,area,T4 Rysova,49.2411978,16.5719994
641120034,area,"MŠ Brno, Chodská",49.2130396,16.5949216
641120828,area,Mateřská škola Chodská,49.2149524,16.592989
641541732,area,Poliklinika Lesná,49.2229123,16.6259546
645085142,area,Hasičské sportovní cvičiště,49.1713192,16.5866014
651018072,area,Brno Slatina St. 2,49.1711626,16.6804329
653074014,area,Sportovní klub Královo Pole,49.2250261,16.5899783
653074016,area,Základní škola Košinova,49.2246965,16.5973248
655511784,area,farní zahrada,49.2029936,16.6287584
655527754,area,Staňkova 18 Vašstav,49.2123613,16.603539
819645,area,Ředitelství pošt a telegrafů,49.2048257,16.5983758
656045518,area,Nájemní domy Úrazové pojišťovny dělnické pro Moravu a Slezsko,49.2057695,16.5951258
656069724,area,Penzion MÁMA,49.2137641,16.6450611
656890824,area,Cibulárna,49.1826741,16.6991504
656934128,area,A35 (CEITEC),49.1788748,16.570329
662181470,area,Parking BVV,49.1907382,16.5742848
666762468,area,MŠ nám. Svornosti,49.2143052,16.580456
668070300,area,Kaprálův mlýn,49.2424813,16.7323531
668444890,area,Víno Jundrov,49.2094499,16.5568727
668572654,area,Park Bubeníčkova,49.2013853,16.6381791
668583396,area,Rezidence Juliana II,49.1961955,16.6564101
670872334,area,pumptrack Líšeň & dirty,49.2099033,16.6819956
671754102,area,Domov u Františka,49.101869,16.7647951
9533813,area,Dřínový kopec,49.1940065,16.5448068
674361390,area,významný krajinný prvek Dřínový kopec,49.1942807,16.5451715
9543893,area,Zátmí,49.1980176,16.5345056
677475574,area,Wéhonek,49.2099225,16.5483144
679538326,area,Impact Hub Brno,49.1901446,16.6203094
681699564,area,Business Centre Ponávka,49.185152,16.6215907
847371,area,Bystrc,49.2166657,16.4279898
869661,area,Židenice,49.1913467,16.6282287
689327236,area,Jeneweinova retenční nádrž,49.1778099,16.6171508
691214066,area,Lobpraissova zátoka,49.0967196,16.3957377
696083998,area,Centrum Šumavská,49.2117784,16.5971048
703279866,area,starý vodojem,49.1951685,16.4318265
704963654,area,Na Jezeře,49.2427071,16.5164455
704963658,area,Maximus resort,49.2429438,16.5164601
717063208,area,Světelná fontána,49.1987915,16.60942
722715286,area,studánka Ptačí svatyně,49.2883165,16.6599843
728820666,area,Lužánky – středisko volného času,49.2062428,16.6065244
730780706,area,rosárium,49.2031503,16.6034926
730780708,area,zahrada pro nevidomé,49.2034118,16.6025654
730966262,area,biologie koupaliště,49.1706123,16.6190992
732231726,area,zřícenina hradu Ronov,49.2805734,16.6662195
736565106,area,Balmeto,49.2359729,16.6247398
736565108,area,Dusíkova PET,49.2362615,16.6273673
736565110,area,"McBride, Dermacol",49.2367082,16.6237447
736565112,area,Mateřská škola Nejedlého,49.2293705,16.62773
736565116,area,Stavebniny Konvalinka,49.2358069,16.6236139
736565288,area,Čertova rokle,49.2322189,16.6211226
741799242,area,FF MUNI,49.2002432,16.5979569
742943920,area,TJ Start,49.2318648,16.6208144
742953400,area,Ostrá horka,49.2480031,16.6220786
742953438,area,Královopolská RIA,49.2225095,16.6209335
743265846,area,SSO Adamovská,49.2913726,16.6301298
743265852,area,BAUHAUS,49.2611334,16.5719553
743265938,area,Záhumení,49.2913867,16.5787921
743265944,area,Útěchov Chlumy,49.2885233,16.6304219
744959468,area,TE Connectivity Brno,49.1662249,16.6721313
744959668,area,ModusLink,49.171214,16.6735752
744959674,area,AU Optronics,49.1685333,16.6724172
744959676,area,Garrett,49.1665081,16.6709116
744959688,area,Carclo Technical Plastics,49.1698681,16.6728059
744973284,area,Stadion Za Lužánkami,49.2130337,16.6104053
745190384,area,Autocentrum Slatina,49.1851898,16.65605
745190386,area,Střední škola technická a ekonomická,49.18667,16.6517354
745190388,area,Vinamo,49.187513,16.6485826
745190534,area,Zahradky,49.1926624,16.662192
745356546,area,Viadukt Křenová,49.1940088,16.6182865
745407912,area,Novosadský most,49.1840651,16.6018842
747671892,area,Stavebniny Šťastný,49.2150025,16.6315283
748321964,area,Maloměřický most,49.2156267,16.6416531
748334216,area,Obřanský most,49.2281617,16.6487847
749545178,area,Slatinská proti č. 86,49.1929877,16.6574853
750695812,area,Polyfunkční dům,49.2145582,16.6296936
11196041,area,Rektorát VUT v Brně,49.2018639,16.6028683
752573194,area,Zderadův most,49.1911569,16.6282055
753614248,area,IBC Příkop,49.1997073,16.6115473
754103904,area,Mateřská škola Rozárka,49.2297736,16.5830798
754661898,area,Areál Financial Consortium,49.1960935,16.6172639
756438116,area,Křivánkovo náměstí,49.2070334,16.4875424
756438118,area,Mateřská škola Žabka,49.2094786,16.4875394
756438120,area,Základní škola Otevřená,49.2089175,16.4874364
756438122,area,Za kostelem,49.2005693,16.4892268
11276029,area,Pod Plachtami,49.1787716,16.5458128
757400882,area,Hangar 10 (Flying Academy),49.1555089,16.6800434
757927542,area,"Mateřská škola Náměstí SNP, Brno",49.2192744,16.6205134
758193040,area,Tenis Colatransport,49.1432569,16.6548967
758882970,area,Kamenomlýnský most,49.2022906,16.5662764
758882998,area,"Střední škola informatiky, poštovnictví a finančnictví Brno",49.2135581,16.5599248
758883016,area,vozovna Komín,49.2142885,16.558494
759061536,area,Hvězdička - park Eugena Horvátha,49.2014365,16.620827
759061538,area,Nízkoprahový klub,49.2011344,16.6216021
11309157,area,Tenisová hala Horova,49.2136088,16.5764517
759313800,area,TJ Sokol Žabovřesky,49.2055769,16.5745347
759314130,area,Jana Nečase,49.2069623,16.5740298
760419642,area,ZŠ Arménská,49.167055,16.5796881
760419702,area,T30 Švermova u č.X,49.1690979,16.5704869
760419762,area,T29 Okrouhlá u č.1,49.1696059,16.568977
760924290,area,Zoo Brno - sezónní vstup,49.2332659,16.5297118
761270544,area,"Základní škola Brno, Horní 16",49.1805398,16.5893567
761529648,area,FN u sv. Anny,49.1886776,16.6013805
761529746,area,Hybešova 21 ČSAO,49.1890338,16.6048409
761536840,area,TS Václavská 5,49.1888401,16.5965282
761588272,area,Klafé Bed and Breakfast,49.2007603,16.5828394
761616960,area,SSO Sladovnická,49.1519038,16.6514887
762851274,area,Turgeněvova,49.1894809,16.6436899
763479938,area,kontejnerové překladiště,49.1594299,16.6077702
11368581,area,Eli Fitness,49.201222,16.5837015
11368583,area,Fakulta stavební VUT v Brně,49.2057309,16.5892119
763926622,area,Titanium,49.1871033,16.6054969
765756894,area,Ovoce & zelenina,49.2184807,16.6215095
765832502,area,Lékařský dům Hlinky,49.1910709,16.5782424
765832504,area,Masarykův pavilon,49.194701,16.5884971
765832524,area,Vinařská,49.1915084,16.5808449
766377504,area,Ponava City,49.217697,16.6011393
769516232,area,Tvrdého patologie,49.1970403,16.5923292
769758300,area,Mateřská škola Bieblova 16,49.2175856,16.6182722
770678364,area,Výdejna obědů,49.2290535,16.6177518
11478651,area,Integrovaná střední škola automobilní,49.2240175,16.6115811
771438452,area,Koupaliště Královo Pole,49.224044,16.6078964
774450456,area,Mariánské náměstí 13,49.1743796,16.6227384
774693772,area,Barborka Bílovice,49.2408978,16.670585
775349736,area,ZŠ Jihomoravské náměstí 2,49.1795349,16.684602
775349738,area,ZŠ Přemyslovo náměstí,49.1767476,16.6879187
775644144,area,Líšeňská ASA,49.1974318,16.6640451
776090700,area,T17 Mutěnická,49.2035966,16.6555804
776090724,area,T6 Bzenecká,49.2063755,16.6617284
776090740,area,T07 Pálavské náměstí,49.2052404,16.6601282
776090820,area,T19 Pálavské náměstí,49.2052525,16.6570343
776829426,area,Areál volného času u Floriána,49.1777624,16.6338016
776839950,area,retenční nádrž Ráječek,49.1661859,16.6342423
778120892,area,Došlíkova,49.1955351,16.6544457
780124376,area,Point 4 You,49.1753457,16.5694577
780371144,area,U Šuláka,49.2465254,16.5058378
780870754,area,lom Džungle,49.2207339,16.6649844
780907046,area,U Kadlecova mlýna,49.2122677,16.7107866
780989426,area,Elliptica,49.2004772,16.6446465
781230682,area,kaple Panny Marie Líšeňské,49.2036443,16.7088983
781815102,area,Lucky Beach - volleyball courts,49.1642183,16.5567223
782505894,area,FC Slovan Brno,49.188114,16.656176
782505908,area,Areál Dels,49.1896793,16.6523591
782556900,area,STAVBA krbů s.r.o.,49.1835077,16.6673675
782614844,area,Bílé hlíny,49.1969731,16.6605586
783361694,area,"AUTOAUSTRIA , s.r.o.",49.1956159,16.647923
783612712,area,Zimní kluziště Za Lužánkami,49.2114727,16.6080418
786063862,area,Biotop Chrlice,49.1382663,16.6420106
786402352,area,Palác Bochnerů ze Stražiska,49.1899229,16.6163456
789118710,area,klášter Klarisek,49.2566442,16.6225984
789491978,area,X-ARENA,49.1732971,16.6832453
789883472,area,"Mateřská škola Brno, Herčíkova",49.2305699,16.5857468
789958172,area,Komunitní hřiště Sobulinka,49.2546811,16.6269667
789958222,area,ZŠ a MŠ Zeiberlichova,49.2553462,16.6218506
790122634,area,Hlouch autoservis,49.1892282,16.64225
790122652,area,U Menclů,49.1881231,16.642509
790154514,area,Hala Východ,49.154751,16.6040594
790339360,area,Májový park,49.1494645,16.6617434
790528804,area,Gustava Broma,49.2320384,16.608841
790528852,area,Miry Figarové,49.2332758,16.6037147
790637516,area,Sportovní hala Brno-Tuřany,49.151742,16.6630876
790637518,area,ZŠ Měšťanská,49.1517955,16.6613865
795417916,area,Bzzzukot,49.1970757,16.6558293
795977992,area,Biskupské gymnázium Brno,49.2030309,16.5719387
795977996,area,Základní škola Náměstí Míru,49.202682,16.5790295
797189620,area,VR Modřice Olympia,49.1344057,16.6326386
798411236,area,Rezidence Juliana,49.1964583,16.6572272
798447782,area,Prodej přívěsných vozíků Brenderup,49.1770997,16.6323572
798571500,area,T26 Loosova,49.2323777,16.6210434
807007592,area,"Polyfunkční dům, školící centrum",49.1900045,16.6362514
814467548,area,Panská louka,49.2607875,16.6398385
820215486,area,Oříšky,49.1753775,16.5692279
12295239,area,Panská lícha,49.2465186,16.6337931
826161078,area,Bobycentrum,49.2129015,16.6072274
828509872,area,Zámek Belcrediho,49.2031718,16.6955549
834500048,area,Red Hat Czech,49.231386,16.5756709
835910074,area,Denny,49.2093037,16.6056508
836188662,area,plynárenské zařízení RWE,49.2155615,16.5272416
869537,area,Štýřice,49.1830326,16.5836221
869655,area,Horní Heršpice,49.1592704,16.5883985
838104834,area,Areál lodní dopravy DPMB,49.2283436,16.5158249
838104836,area,Vozovna Husovice,49.2074858,16.6299815
840162536,area,Oranžové hřistě,49.2827432,16.6987889
842653270,area,Kart Arena Brno,49.1838771,16.5813419
842655406,area,Koniklecová louka,49.1846981,16.5461878
842923754,area,Myslivna Na Lhotkách,49.2851344,16.7799316
843623848,area,hřbitov Silůvky,49.1053877,16.4760906
843636354,area,Biotop Brno-Jih,49.1707082,16.6183948
845412984,area,Oplocenka,49.1283967,16.5524961
848605712,area,"Střední škola Brno, Charbulova, areál Trnitá",49.1881632,16.6122315
849040274,area,Parkourové hřiště a venkovní posilovna Bzzzukot,49.1973581,16.6569316
849040310,area,Arbe s.r.o.,49.1965221,16.6545332
861419196,area,Otevřená zahrada,49.196911,16.5968287
862560068,area,Vyhlídková věž,49.1944863,16.5999281
12838655,area,MASLEN,49.1905241,16.6379434
863058368,area,Auto Šerý,49.1900865,16.637707
863058370,area,Auto-Universal,49.1903164,16.6376081
863058372,area,DP Olomoucká,49.1901602,16.6379062
863058374,area,FLAGA,49.1900692,16.6361906
863058378,area,STAVOREAL Brno,49.1904952,16.6375024
863058380,area,STAVOSPOL,49.1900157,16.6396707
863058398,area,m3MAT,49.1903497,16.6367324
867657914,area,Moravanský rybník,49.1433084,16.5904243
868678524,area,Základní škola Lelekovice,49.2905724,16.5742403
874001754,area,Zahradnictví u Mašků,49.228549,16.594999
874924050,area,"Red Hat Czech, s.r.o.",49.2319337,16.5752046
881335526,area,tygři,49.2310533,16.5320745
881340454,area,Medvěd lední,49.2344845,16.5301481
881675540,area,Centrum volného času Jabloňka,49.2389804,16.5796469
883702570,area,Místodržitelská zahrada,49.1904896,16.6070761
883891496,area,Révova PET Ledabyl,49.2026263,16.6533984
889589618,area,Výběh s kozami,49.2361447,16.7327834
890426314,area,Park Tišnovka,49.209202,16.6256283
894133488,area,Badminton - Líšeň,49.1947813,16.6702545
894172616,area,Sportovní hala Maloměřice,49.2224791,16.6427378
898743762,area,Třískalova,49.2253972,16.6167468
898744160,area,Tomečkova PET,49.2269056,16.6166917
899707296,area,Královopolská 139 s.r.o.,49.2218199,16.5803897
899707298,area,Technická Invensys,49.2226432,16.5804385
899707374,area,Ústav přístrojové techniky Akademie věd České republiky,49.2224709,16.5828887
899712584,area,Ústav fyziky materiálů Akademie věd České republiky,49.2076775,16.5891112
899886412,area,Základní škola Masarova,49.2040708,16.6740301
900037068,area,"Základní škola Brno, Čejkovická 10",49.2004339,16.6630237
900037070,area,Základní škola Mutěnická,49.2030219,16.6600786
900197288,area,17. PTO Vlci,49.216322,16.5650278
900197300,area,Denní stacionář Brno,49.219552,16.5680584
900197312,area,FC Medlánky,49.2401508,16.5752847
900197350,area,Strojírenský zkušební ústav,49.2388379,16.5742614
903382342,area,SSO Rysova,49.2411041,16.5721384
903903234,area,ODTAHOVÁ SLUŽBA - Zdeněk Černý,49.1670166,16.6862403
908653690,area,Technické sítě Brno,49.1922289,16.6164029
859491,area,Bílovice nad Svitavou,49.2781198,16.6175743
859657,area,Útěchov u Brna,49.2852433,16.6220398
918900480,area,Workout hřiště Ptačina,49.2897308,16.6647255
931715594,area,Půjčovna bruslí,49.2261947,16.585463
931715596,area,U Kluziště,49.2264046,16.5856888
13777503,area,náměstí 28. dubna,49.2262721,16.5296471
937625096,area,Žlutá ponorka,49.2297846,16.5201722
941658230,area,Stavotes,49.2359825,16.5871225
943453518,area,Úřad městské části Brno-Bosonohy,49.1740081,16.5327427
944750088,area,KIA MOTORS,49.2305957,16.5936997
945370144,area,Kaple Cyrila a Metoděje,49.1152875,16.5217823
13919661,area,Archiv bezpečnostních složek - Badatelna Brno-Kanice,49.2506287,16.7027487
946746952,area,Střelice Kopaniny,49.1490989,16.5036435
946747262,area,ACM Brno,49.200896,16.6037107
947952980,area,SSO Točná,49.1630466,16.5597081
947988440,area,Národní centrum ošetřovatelství a nelékařských zdravotnických oborů,49.1918563,16.5832899
954257012,area,Park Legionářů,49.2174657,16.7957894
957984710,area,Bike park,49.2379622,16.6250564
966111830,area,Rezidence Alfa Beta,49.2028322,16.6248406
967988810,area,Rybník Mates,49.2737408,16.6136603
971423620,area,Parking Veterina,49.2344579,16.6279136
975607924,area,Dětské hřiště Podešvova,49.1177924,16.7243669
977249752,area,Démos,49.1163355,16.7302544
984375212,area,U Sosny,49.2269753,16.641997
984386968,area,Čistírna odpadních vod Bílovice nad Svitavou,49.2419309,16.6739426
984748200,area,Brněnská Pole,49.1649839,16.7185378
986933806,area,Letní zahrádka Na Ostrůvku,49.2480552,16.6732108
988940172,area,"nedokončený most ""Hitlerovy dálnice"", tzv. 3. most,",49.1440236,16.5569633
996170932,area,Velká fontána,49.1952196,16.6084026
998780174,area,Tribuna T5,49.2025746,16.4449002
999694970,area,C Tribuna,49.2066302,16.4535661
999695984,area,D Tribuna,49.2074496,16.4594946
999697618,area,B Tribuna,49.2093939,16.4550102
999698518,area,A Tribuna,49.2063725,16.4490803
999699062,area,G Tribüne,49.2029265,16.4522712
999699632,area,F Tribuna,49.2036385,16.4586148
999700432,area,E Tribuna,49.2023389,16.4606872
999701386,area,Tribuna T1,49.2073612,16.4539837
1002318626,area,Zahradnictví Brno Kresa s.r.o.,49.1787161,16.5348217
1007794924,area,Obecní úřad Bílovice nad Svitavou,49.2469679,16.6725438
1008267674,area,Poklona,49.1372826,16.7332218
1018534826,area,Duro Salewa,49.2236171,16.6489663
1032373554,area,Camp Oása Chudčice,49.288101,16.4548561
1032687600,area,obchvat Slatina,49.1731312,16.6640725
1042487296,area,ČOV Újezd u Brna,49.0995133,16.7547316
1042569746,area,Bylinková,49.2121237,16.6897442
1042719300,area,Betonová deska,49.204711,16.7163975
1042733644,area,Tréninkové centrum mládeže SK Líšeň,49.2079689,16.7149272
1043418302,area,Zvířátka - Mini ZOO,49.206177,16.7175114
1047513294,area,Ochlazovací jezírko,49.2427752,16.516525
1049529574,area,zahrada Orlovny,49.2011991,16.6950102
1052458594,area,"Softballové hřiště, Cats Brno",49.2131442,16.5555954
1055052608,area,Úprava výrobního areálu ZETOR - východ,49.1967264,16.6752888
1058444400,area,Tetčický mlýn,49.171408,16.4158571
1068134110,area,Základní škola Pavlovská,49.1905607,16.5256058
1072667588,area,Emons,49.1495918,16.6021116
1072667696,area,STAVOPROJEKTA,49.1434413,16.5913182
1076403152,area,Jarmily Kurandové,49.2303462,16.6083184
